t,yaw,pitch,roll,arealX,arealY,arealZ,aworldX,aworldY,aworldZ,gpstime,lat,lon,speed,alt
0.093461,5.69,45.88,-9.54,0.35,-0.03,0.45,-0.08,0.07,0.57,13-12-1901 20:45:52,0.00,-166789625926658381592203655073542661642007598010108926079876423243728840357107493929350297706155653968112487114919978710682655295909560685940129483241022975619698416058913387281809582611138569382531500014143799296.00,-757119178908359787074503762867099274461703529759422354310580213120445550706631504627788839730056906101176678911510163392299008.00,-113049749052069437299718944549291348378865915097506900052313919000366413723790175172123323950087704370640273162946632739877311028488787531681981380515426102078557450212028738104035318923213886455808.00
11.577291,-1.41,40.68,1.31,0.55,-0.09,0.83,-0.12,-0.12,0.98,,,,,
11.583783,-1.41,40.69,1.30,0.55,-0.09,0.83,-0.12,-0.12,0.98,,,,,
11.590161,-1.43,40.69,1.31,0.55,-0.10,0.83,-0.12,-0.12,0.98,,,,,
11.597677,-1.43,40.69,1.31,0.55,-0.10,0.83,-0.12,-0.12,0.99,,,,,
11.604914,-1.43,40.69,1.30,0.55,-0.10,0.83,-0.12,-0.12,0.98,,,,,
11.612040,-1.44,40.69,1.30,0.55,-0.10,0.83,-0.12,-0.13,0.98,,,,,
11.619206,-1.44,40.69,1.30,0.55,-0.10,0.83,-0.12,-0.13,0.98,,,,,
11.626462,-1.45,40.69,1.29,0.55,-0.10,0.83,-0.12,-0.13,0.98,,,,,
11.633571,-1.45,40.69,1.29,0.55,-0.10,0.82,-0.12,-0.13,0.98,,,,,
11.640544,-1.46,40.69,1.29,0.55,-0.10,0.82,-0.12,-0.13,0.98,,,,,
11.647496,-1.46,40.69,1.29,0.55,-0.10,0.82,-0.12,-0.13,0.98,,,,,
11.654426,-1.46,40.69,1.29,0.55,-0.10,0.83,-0.12,-0.12,0.98,,,,,
11.661469,-1.46,40.69,1.29,0.55,-0.10,0.83,-0.12,-0.12,0.99,,,,,
11.668487,-1.47,40.69,1.29,0.56,-0.10,0.83,-0.12,-0.12,0.99,,,,,
11.675428,-1.47,40.69,1.29,0.55,-0.10,0.83,-0.12,-0.12,0.98,,,,,
11.682752,-1.48,40.69,1.29,0.55,-0.10,0.82,-0.11,-0.12,0.98,,,,,
11.690238,-1.48,40.69,1.29,0.56,-0.10,0.82,-0.11,-0.12,0.98,,,,,
11.697876,-1.49,40.70,1.29,0.56,-0.10,0.82,-0.11,-0.12,0.98,,,,,
11.705671,-1.49,40.70,1.29,0.56,-0.10,0.82,-0.11,-0.12,0.98,,,,,
11.713133,-1.50,40.70,1.29,0.56,-0.10,0.82,-0.11,-0.12,0.98,,,,,
11.721499,-1.50,40.70,1.29,0.56,-0.10,0.82,-0.11,-0.13,0.98,,,,,
11.729135,-1.50,40.71,1.28,0.56,-0.10,0.82,-0.11,-0.13,0.98,,,,,
11.737078,-1.50,40.71,1.28,0.56,-0.11,0.82,-0.11,-0.13,0.98,,,,,
11.744781,-1.51,40.71,1.28,0.56,-0.11,0.82,-0.11,-0.13,0.98,,,,,
11.752657,-1.51,40.71,1.27,0.56,-0.11,0.82,-0.11,-0.13,0.98,,,,,
11.759838,-1.52,40.71,1.27,0.55,-0.11,0.83,-0.12,-0.13,0.98,,,,,
11.766802,-1.52,40.71,1.27,0.55,-0.10,0.83,-0.12,-0.13,0.98,,,,,
11.773673,-1.52,40.71,1.26,0.55,-0.10,0.83,-0.12,-0.13,0.98,,,,,
11.780525,-1.52,40.71,1.26,0.55,-0.10,0.83,-0.12,-0.13,0.98,,,,,
11.787618,-1.53,40.71,1.26,0.55,-0.10,0.83,-0.12,-0.13,0.98,,,,,
11.794342,-1.53,40.71,1.26,0.55,-0.10,0.83,-0.12,-0.13,0.99,,,,,
11.802283,-1.54,40.71,1.26,0.55,-0.10,0.83,-0.12,-0.13,0.99,,,,,
11.809936,-1.54,40.71,1.26,0.55,-0.10,0.83,-0.12,-0.13,0.99,,,,,
11.817537,-1.55,40.71,1.26,0.55,-0.10,0.83,-0.12,-0.13,0.99,,,,,
11.824506,-1.55,40.71,1.26,0.56,-0.10,0.83,-0.12,-0.12,0.99,,,,,
11.831943,-1.56,40.71,1.26,0.56,-0.10,0.82,-0.11,-0.12,0.98,,,,,
11.839031,-1.57,40.71,1.26,0.56,-0.10,0.82,-0.11,-0.13,0.98,,,,,
11.846006,-1.57,40.72,1.26,0.56,-0.10,0.82,-0.11,-0.13,0.98,,,,,
11.853096,-1.58,40.72,1.26,0.56,-0.10,0.82,-0.11,-0.13,0.98,,,,,
11.860192,-1.58,40.72,1.26,0.56,-0.10,0.82,-0.11,-0.13,0.98,,,,,
11.867284,-1.59,40.72,1.25,0.55,-0.10,0.82,-0.11,-0.13,0.98,,,,,
11.874767,-1.59,40.72,1.25,0.55,-0.10,0.82,-0.11,-0.13,0.98,,,,,
11.882388,-1.60,40.72,1.25,0.55,-0.10,0.82,-0.11,-0.13,0.98,,,,,
11.889369,-1.60,40.72,1.25,0.55,-0.10,0.82,-0.11,-0.13,0.98,,,,,
11.896296,-1.61,40.73,1.25,0.55,-0.10,0.82,-0.12,-0.13,0.98,,,,,
11.903247,-1.61,40.73,1.25,0.55,-0.10,0.82,-0.12,-0.12,0.98,,,,,
11.910147,-1.61,40.73,1.25,0.55,-0.10,0.83,-0.12,-0.12,0.98,,,,,
11.917225,-1.62,40.72,1.25,0.55,-0.10,0.83,-0.12,-0.12,0.99,,,,,
11.925325,-1.62,40.72,1.25,0.55,-0.10,0.83,-0.12,-0.12,0.99,,,,,
11.933028,-1.63,40.72,1.25,0.55,-0.10,0.83,-0.12,-0.12,0.99,,,,,
11.940817,-1.63,40.72,1.25,0.55,-0.10,0.83,-0.12,-0.13,0.99,,,,,
11.948279,-1.63,40.72,1.25,0.55,-0.10,0.83,-0.12,-0.13,0.99,,,,,
11.955448,-1.63,40.72,1.25,0.55,-0.10,0.83,-0.12,-0.13,0.99,,,,,
11.962595,-1.64,40.72,1.25,0.55,-0.11,0.83,-0.12,-0.13,0.99,,,,,
11.969849,-1.65,40.72,1.24,0.55,-0.11,0.83,-0.12,-0.13,0.98,,,,,
11.976911,-1.65,40.72,1.24,0.55,-0.11,0.83,-0.12,-0.13,0.98,,,,,
11.985886,-1.66,40.72,1.24,0.55,-0.11,0.82,-0.12,-0.13,0.98,,,,,
11.995376,-1.66,40.72,1.24,0.55,-0.11,0.82,-0.12,-0.13,0.98,,,,,
12.004277,-1.66,40.72,1.24,0.55,-0.11,0.83,-0.12,-0.13,0.98,,,,,
12.015138,-1.67,40.72,1.25,0.55,-0.11,0.83,-0.12,-0.13,0.98,,,,,
12.025800,-1.67,40.72,1.25,0.55,-0.11,0.83,-0.12,-0.13,0.98,,,,,
12.035068,-1.67,40.72,1.25,0.55,-0.11,0.83,-0.12,-0.13,0.98,,,,,
12.045946,-1.68,40.72,1.25,0.55,-0.10,0.83,-0.12,-0.13,0.98,,,,,
12.054853,-1.68,40.72,1.25,0.55,-0.10,0.83,-0.12,-0.13,0.98,,,,,
12.065566,-1.68,40.72,1.25,0.55,-0.10,0.83,-0.12,-0.13,0.98,,,,,
12.074515,-1.70,40.71,1.25,0.55,-0.10,0.83,-0.12,-0.12,0.99,,,,,
12.085412,-1.70,40.71,1.26,0.55,-0.10,0.83,-0.12,-0.12,0.99,,,,,
12.094219,-1.70,40.71,1.26,0.55,-0.10,0.83,-0.12,-0.12,0.98,,,,,
12.106063,-1.70,40.71,1.27,0.55,-0.10,0.83,-0.12,-0.12,0.98,,,,,
12.114991,-1.71,40.71,1.26,0.55,-0.10,0.83,-0.12,-0.12,0.98,,,,,
12.124453,-1.71,40.71,1.26,0.55,-0.10,0.83,-0.12,-0.12,0.98,,,,,
12.134826,-1.72,40.71,1.27,0.55,-0.10,0.83,-0.12,-0.13,0.98,,,,,
12.146328,-1.72,40.71,1.27,0.55,-0.10,0.83,-0.12,-0.13,0.98,,,,,
12.155777,-1.73,40.71,1.27,0.55,-0.10,0.83,-0.12,-0.13,0.98,,,,,
12.164846,-1.73,40.71,1.27,0.55,-0.10,0.83,-0.12,-0.13,0.98,,,,,
12.175349,-1.74,40.70,1.28,0.55,-0.10,0.83,-0.12,-0.12,0.98,,,,,
12.184320,-1.75,40.70,1.28,0.55,-0.10,0.83,-0.12,-0.12,0.98,,,,,
12.194613,-1.75,40.70,1.28,0.55,-0.10,0.83,-0.12,-0.12,0.98,,,,,
12.204608,-1.75,40.70,1.29,0.55,-0.10,0.83,-0.12,-0.12,0.98,,,,,
12.214384,-1.75,40.70,1.29,0.55,-0.10,0.83,-0.12,-0.12,0.98,,,,,
12.224405,-1.76,40.70,1.30,0.55,-0.09,0.83,-0.12,-0.12,0.98,,,,,
12.234175,-1.76,40.70,1.29,0.55,-0.09,0.83,-0.12,-0.12,0.98,,,,,
12.246129,-1.77,40.70,1.30,0.55,-0.09,0.83,-0.12,-0.12,0.99,,,,,
12.255669,-1.78,40.70,1.30,0.55,-0.09,0.83,-0.12,-0.12,0.99,,,,,
12.265366,-1.78,40.70,1.30,0.55,-0.10,0.83,-0.12,-0.12,0.98,,,,,
12.275289,-1.79,40.70,1.30,0.55,-0.10,0.83,-0.12,-0.12,0.98,,,,,
12.284852,-1.79,40.70,1.30,0.55,-0.10,0.83,-0.12,-0.12,0.99,,,,,
12.294539,-1.80,40.70,1.30,0.55,-0.10,0.83,-0.12,-0.13,0.98,,,,,
12.304415,-1.80,40.70,1.30,0.55,-0.10,0.83,-0.12,-0.13,0.98,,,,,
12.316016,-1.80,40.70,1.30,0.55,-0.10,0.83,-0.12,-0.13,0.98,,,,,
12.325423,-1.81,40.70,1.30,0.55,-0.10,0.83,-0.12,-0.13,0.98,,,,,
12.335142,-1.81,40.70,1.30,0.55,-0.10,0.83,-0.12,-0.13,0.98,,,,,
12.345045,-1.81,40.69,1.30,0.55,-0.10,0.83,-0.12,-0.13,0.98,,,,,
12.354537,-1.81,40.69,1.31,0.55,-0.10,0.83,-0.12,-0.12,0.98,,,,,
12.364968,-1.82,40.69,1.31,0.55,-0.09,0.83,-0.12,-0.12,0.98,,,,,
12.374382,-1.82,40.69,1.31,0.55,-0.09,0.83,-0.12,-0.12,0.99,,,,,
12.384045,-1.82,40.69,1.31,0.55,-0.09,0.83,-0.12,-0.12,0.99,,,,,
12.394174,-1.83,40.69,1.31,0.55,-0.10,0.83,-0.12,-0.12,0.99,,,,,
12.405881,-1.83,40.69,1.31,0.55,-0.10,0.83,-0.12,-0.12,0.99,,,,,
12.415294,-1.84,40.69,1.31,0.55,-0.10,0.83,-0.12,-0.12,0.99,,,,,
12.425328,-1.84,40.69,1.31,0.55,-0.10,0.83,-0.12,-0.12,0.99,,,,,
12.435060,-1.85,40.69,1.31,0.55,-0.10,0.83,-0.12,-0.13,0.99,,,,,
12.444984,-1.85,40.69,1.31,0.55,-0.10,0.83,-0.12,-0.13,0.99,,,,,
12.454480,-1.86,40.69,1.31,0.55,-0.10,0.83,-0.12,-0.13,0.99,,,,,
12.464205,-1.86,40.69,1.31,0.55,-0.10,0.83,-0.12,-0.13,0.99,,,,,
12.474104,-1.87,40.69,1.31,0.55,-0.10,0.83,-0.12,-0.13,0.98,,,,,
12.485723,-1.87,40.69,1.31,0.55,-0.10,0.82,-0.12,-0.13,0.98,,,,,
12.495154,-1.88,40.69,1.31,0.55,-0.10,0.83,-0.12,-0.12,0.98,,,,,
12.504833,-1.88,40.69,1.31,0.55,-0.10,0.82,-0.12,-0.12,0.98,,,,,
12.514938,-1.88,40.69,1.31,0.55,-0.10,0.82,-0.11,-0.12,0.98,,,,,
12.524306,-1.89,40.70,1.31,0.55,-0.10,0.82,-0.11,-0.12,0.98,,,,,
12.533914,-1.89,40.70,1.31,0.55,-0.10,0.82,-0.11,-0.12,0.98,,,,,
12.546006,-1.90,40.70,1.31,0.55,-0.10,0.82,-0.11,-0.12,0.98,,,,,
12.555479,-1.91,40.70,1.31,0.55,-0.10,0.82,-0.12,-0.13,0.98,,,,,
12.565199,-1.91,40.70,1.31,0.55,-0.10,0.83,-0.12,-0.13,0.98,,,,,
12.575117,-1.92,40.70,1.30,0.55,-0.10,0.83,-0.12,-0.13,0.98,,,,,
12.584616,-1.92,40.70,1.30,0.55,-0.10,0.83,-0.12,-0.12,0.99,,,,,
12.594126,-1.92,40.70,1.30,0.56,-0.10,0.83,-0.11,-0.12,0.99,,,,,
12.604242,-1.92,40.70,1.30,0.56,-0.10,0.83,-0.11,-0.12,0.99,,,,,
12.615865,-1.93,40.70,1.31,0.56,-0.10,0.83,-0.11,-0.12,0.99,,,,,
12.625598,-1.93,40.70,1.31,0.56,-0.10,0.83,-0.11,-0.12,0.99,,,,,
12.635477,-1.93,40.70,1.31,0.56,-0.10,0.83,-0.11,-0.12,0.99,,,,,
12.645034,-1.94,40.71,1.31,0.55,-0.10,0.83,-0.11,-0.12,0.99,,,,,
12.654791,-1.94,40.71,1.31,0.55,-0.10,0.83,-0.12,-0.12,0.98,,,,,
12.664026,-1.95,40.71,1.30,0.55,-0.10,0.83,-0.12,-0.13,0.98,,,,,
12.674904,-1.95,40.70,1.30,0.55,-0.10,0.83,-0.12,-0.13,0.98,,,,,
12.683660,-1.95,40.70,1.30,0.55,-0.11,0.83,-0.12,-0.13,0.98,,,,,
12.694207,-1.96,40.70,1.29,0.55,-0.11,0.83,-0.12,-0.13,0.98,,,,,
12.704899,-1.96,40.70,1.29,0.55,-0.11,0.83,-0.12,-0.13,0.98,,,,,
12.713910,-1.97,40.70,1.29,0.55,-0.11,0.83,-0.12,-0.13,0.98,,,,,
12.724949,-1.97,40.70,1.29,0.55,-0.11,0.83,-0.12,-0.13,0.98,,,,,
12.733941,-1.97,40.70,1.29,0.55,-0.10,0.83,-0.12,-0.13,0.98,,,,,
12.744884,-1.97,40.70,1.30,0.55,-0.10,0.83,-0.12,-0.13,0.98,,,,,
12.753857,-1.98,40.70,1.29,0.55,-0.10,0.83,-0.12,-0.12,0.98,,,,,
12.764568,-1.98,40.70,1.30,0.55,-0.10,0.83,-0.12,-0.12,0.99,,,,,
12.773961,-1.98,40.70,1.30,0.55,-0.10,0.83,-0.12,-0.12,0.99,,,,,
12.785365,-1.99,40.70,1.30,0.55,-0.10,0.83,-0.12,-0.12,0.98,,,,,
12.794500,-2.00,40.70,1.29,0.55,-0.10,0.83,-0.12,-0.12,0.98,,,,,
12.803803,-2.00,40.70,1.29,0.55,-0.10,0.83,-0.12,-0.13,0.98,,,,,
12.815251,-2.01,40.70,1.29,0.55,-0.10,0.83,-0.12,-0.13,0.98,,,,,
12.824585,-2.01,40.70,1.29,0.55,-0.11,0.82,-0.12,-0.13,0.98,,,,,
12.833824,-2.02,40.70,1.29,0.55,-0.11,0.83,-0.12,-0.13,0.98,,,,,
12.845175,-2.02,40.70,1.29,0.55,-0.11,0.82,-0.12,-0.14,0.98,,,,,
12.854322,-2.03,40.70,1.29,0.55,-0.11,0.83,-0.12,-0.13,0.98,,,,,
12.863571,-2.03,40.70,1.29,0.55,-0.11,0.82,-0.12,-0.13,0.98,,,,,
12.874894,-2.03,40.70,1.29,0.55,-0.10,0.83,-0.12,-0.13,0.98,,,,,
12.884140,-2.03,40.70,1.29,0.55,-0.10,0.83,-0.12,-0.12,0.98,,,,,
12.895148,-2.04,40.70,1.30,0.55,-0.10,0.83,-0.12,-0.12,0.98,,,,,
12.904529,-2.04,40.70,1.30,0.55,-0.10,0.83,-0.12,-0.12,0.99,,,,,
12.913871,-2.04,40.70,1.30,0.55,-0.10,0.83,-0.12,-0.12,0.98,,,,,
12.926057,-2.05,40.70,1.30,0.55,-0.10,0.83,-0.12,-0.12,0.98,,,,,
12.935242,-2.05,40.70,1.30,0.55,-0.10,0.83,-0.12,-0.12,0.98,,,,,
12.944326,-2.06,40.70,1.31,0.55,-0.10,0.83,-0.12,-0.12,0.98,,,,,
12.955323,-2.06,40.70,1.31,0.55,-0.10,0.83,-0.12,-0.12,0.98,,,,,
12.965575,-2.07,40.70,1.30,0.55,-0.10,0.83,-0.12,-0.13,0.98,,,,,
12.974557,-2.07,40.70,1.30,0.55,-0.10,0.83,-0.12,-0.13,0.98,,,,,
12.983590,-2.08,40.70,1.30,0.55,-0.10,0.83,-0.12,-0.13,0.98,,,,,
12.994251,-2.09,40.70,1.31,0.55,-0.10,0.83,-0.12,-0.13,0.98,,,,,
13.004984,-2.09,40.70,1.31,0.55,-0.10,0.82,-0.12,-0.13,0.98,,,,,
13.013861,-2.09,40.70,1.31,0.55,-0.10,0.83,-0.12,-0.13,0.98,,,,,
13.024784,-2.10,40.70,1.31,0.55,-0.10,0.83,-0.12,-0.12,0.98,,,,,
13.033717,-2.11,40.70,1.31,0.55,-0.10,0.83,-0.12,-0.12,0.98,,,,,
13.044371,-2.11,40.70,1.32,0.55,-0.09,0.83,-0.12,-0.12,0.98,,,,,
13.053476,-2.11,40.70,1.32,0.55,-0.09,0.83,-0.12,-0.12,0.98,,,,,
13.064842,-2.12,40.70,1.31,0.55,-0.09,0.82,-0.12,-0.12,0.98,,,,,
13.073743,-2.12,40.70,1.32,0.55,-0.10,0.82,-0.11,-0.12,0.98,,,,,
13.084418,-2.13,40.70,1.32,0.55,-0.10,0.83,-0.12,-0.12,0.98,,,,,
13.093371,-2.13,40.70,1.32,0.55,-0.10,0.82,-0.11,-0.12,0.98,,,,,
13.104076,-2.14,40.71,1.32,0.55,-0.10,0.83,-0.11,-0.13,0.98,,,,,
13.114963,-2.14,40.71,1.32,0.56,-0.10,0.83,-0.11,-0.13,0.99,,,,,
13.123947,-2.15,40.71,1.31,0.56,-0.10,0.83,-0.12,-0.13,0.99,,,,,
13.134851,-2.15,40.71,1.31,0.56,-0.10,0.83,-0.11,-0.13,0.99,,,,,
13.143732,-2.16,40.71,1.31,0.56,-0.10,0.83,-0.11,-0.13,0.99,,,,,
13.154511,-2.16,40.71,1.31,0.56,-0.10,0.83,-0.11,-0.13,0.99,,,,,
13.163481,-2.16,40.71,1.31,0.56,-0.10,0.83,-0.11,-0.13,0.99,,,,,
13.174055,-2.16,40.71,1.31,0.56,-0.10,0.83,-0.11,-0.13,0.99,,,,,
13.183488,-2.17,40.72,1.31,0.56,-0.10,0.82,-0.11,-0.13,0.99,,,,,
13.194212,-2.17,40.72,1.31,0.56,-0.10,0.82,-0.11,-0.13,0.98,,,,,
13.203337,-2.18,40.72,1.30,0.55,-0.10,0.82,-0.11,-0.13,0.98,,,,,
13.214053,-2.18,40.72,1.30,0.56,-0.10,0.82,-0.11,-0.13,0.98,,,,,
13.224890,-2.19,40.72,1.30,0.56,-0.11,0.82,-0.11,-0.13,0.98,,,,,
13.233839,-2.19,40.72,1.30,0.55,-0.11,0.82,-0.11,-0.13,0.98,,,,,
13.244634,-2.20,40.72,1.30,0.55,-0.11,0.82,-0.11,-0.13,0.98,,,,,
13.253658,-2.20,40.72,1.30,0.55,-0.10,0.82,-0.11,-0.13,0.98,,,,,
13.264375,-2.20,40.72,1.30,0.55,-0.10,0.82,-0.12,-0.13,0.98,,,,,
13.273440,-2.21,40.72,1.30,0.55,-0.10,0.82,-0.11,-0.13,0.98,,,,,
13.284127,-2.21,40.72,1.30,0.55,-0.10,0.82,-0.11,-0.13,0.98,,,,,
13.293138,-2.22,40.72,1.30,0.55,-0.10,0.82,-0.11,-0.13,0.98,,,,,
13.303917,-2.22,40.73,1.30,0.55,-0.10,0.82,-0.11,-0.13,0.98,,,,,
13.314754,-2.23,40.73,1.30,0.56,-0.10,0.82,-0.11,-0.13,0.98,,,,,
13.323676,-2.23,40.73,1.30,0.56,-0.10,0.82,-0.11,-0.13,0.99,,,,,
13.334380,-2.24,40.73,1.30,0.56,-0.10,0.82,-0.11,-0.13,0.98,,,,,
13.343385,-2.24,40.73,1.30,0.55,-0.10,0.83,-0.11,-0.13,0.98,,,,,
13.354117,-2.25,40.73,1.30,0.55,-0.10,0.82,-0.11,-0.13,0.98,,,,,
13.363154,-2.25,40.73,1.31,0.55,-0.10,0.82,-0.12,-0.13,0.98,,,,,
13.373903,-2.25,40.73,1.31,0.55,-0.10,0.83,-0.12,-0.13,0.98,,,,,
13.384763,-2.26,40.73,1.30,0.55,-0.10,0.83,-0.12,-0.13,0.98,,,,,
13.393670,-2.26,40.73,1.30,0.55,-0.10,0.83,-0.12,-0.13,0.98,,,,,
13.404358,-2.26,40.73,1.30,0.55,-0.10,0.83,-0.12,-0.12,0.98,,,,,
13.413385,-2.27,40.73,1.31,0.55,-0.10,0.83,-0.12,-0.12,0.98,,,,,
13.424188,-2.27,40.73,1.31,0.55,-0.10,0.83,-0.12,-0.12,0.98,,,,,
13.433153,-2.29,40.73,1.31,0.55,-0.10,0.83,-0.12,-0.12,0.98,,,,,
13.443831,-2.29,40.73,1.31,0.55,-0.10,0.83,-0.12,-0.13,0.98,,,,,
13.454785,-2.29,40.73,1.31,0.55,-0.10,0.83,-0.12,-0.13,0.98,,,,,
13.463722,-2.29,40.73,1.31,0.55,-0.10,0.82,-0.12,-0.13,0.98,,,,,
13.472987,-2.30,40.73,1.31,0.55,-0.10,0.83,-0.12,-0.13,0.98,,,,,
13.483762,-2.30,40.73,1.31,0.55,-0.10,0.82,-0.12,-0.13,0.98,,,,,
13.494607,-2.31,40.73,1.30,0.55,-0.10,0.83,-0.12,-0.13,0.98,,,,,
13.503619,-2.31,40.73,1.31,0.55,-0.10,0.83,-0.12,-0.13,0.98,,,,,
13.514460,-2.31,40.73,1.31,0.55,-0.10,0.83,-0.12,-0.13,0.98,,,,,
13.523426,-2.32,40.73,1.31,0.55,-0.10,0.83,-0.12,-0.13,0.98,,,,,
13.534116,-2.33,40.73,1.31,0.55,-0.10,0.83,-0.12,-0.13,0.98,,,,,
13.543123,-2.33,40.73,1.31,0.55,-0.10,0.83,-0.12,-0.12,0.98,,,,,
13.553858,-2.33,40.73,1.31,0.55,-0.10,0.83,-0.12,-0.12,0.98,,,,,
13.564749,-2.34,40.73,1.32,0.55,-0.10,0.83,-0.12,-0.12,0.98,,,,,
13.573593,-2.34,40.73,1.32,0.55,-0.09,0.83,-0.12,-0.12,0.98,,,,,
13.584281,-2.35,40.73,1.32,0.55,-0.09,0.83,-0.12,-0.12,0.98,,,,,
13.593280,-2.35,40.73,1.32,0.55,-0.09,0.83,-0.12,-0.12,0.98,,,,,
13.604061,-2.36,40.73,1.33,0.55,-0.10,0.83,-0.12,-0.12,0.98,,,,,
13.613092,-2.36,40.73,1.33,0.55,-0.10,0.82,-0.11,-0.12,0.98,,,,,
13.623806,-2.37,40.73,1.32,0.55,-0.10,0.83,-0.12,-0.13,0.98,,,,,
13.632828,-2.37,40.73,1.32,0.55,-0.10,0.83,-0.11,-0.13,0.98,,,,,
13.643516,-2.38,40.73,1.32,0.55,-0.10,0.83,-0.11,-0.13,0.99,,,,,
13.654363,-2.38,40.73,1.32,0.55,-0.10,0.83,-0.12,-0.13,0.98,,,,,
13.663413,-2.39,40.73,1.32,0.55,-0.10,0.83,-0.12,-0.13,0.98,,,,,
13.674539,-2.39,40.73,1.32,0.55,-0.10,0.83,-0.12,-0.13,0.98,,,,,
13.683655,-2.40,40.73,1.32,0.55,-0.10,0.83,-0.12,-0.13,0.98,,,,,
13.694332,-2.40,40.73,1.32,0.55,-0.10,0.83,-0.12,-0.13,0.98,,,,,
13.703296,-2.40,40.73,1.32,0.55,-0.10,0.83,-0.12,-0.13,0.98,,,,,
13.714156,-2.41,40.73,1.33,0.55,-0.10,0.83,-0.12,-0.12,0.98,,,,,
13.723205,-2.41,40.73,1.33,0.55,-0.10,0.83,-0.12,-0.12,0.98,,,,,
13.733930,-2.41,40.72,1.33,0.55,-0.09,0.83,-0.12,-0.12,0.98,,,,,
13.744241,-2.41,40.72,1.33,0.55,-0.09,0.83,-0.12,-0.12,0.98,,,,,
13.753239,-2.42,40.72,1.33,0.55,-0.09,0.83,-0.12,-0.12,0.98,,,,,
13.763927,-2.43,40.72,1.34,0.55,-0.09,0.83,-0.12,-0.12,0.98,,,,,
13.772859,-2.43,40.72,1.34,0.55,-0.10,0.83,-0.12,-0.12,0.98,,,,,
13.783717,-2.43,40.72,1.34,0.55,-0.10,0.83,-0.12,-0.13,0.98,,,,,
13.792750,-2.44,40.72,1.33,0.55,-0.10,0.83,-0.12,-0.13,0.98,,,,,
13.803512,-2.45,40.72,1.33,0.55,-0.10,0.83,-0.12,-0.13,0.98,,,,,
13.814242,-2.45,40.72,1.33,0.55,-0.10,0.83,-0.12,-0.13,0.98,,,,,
13.823271,-2.46,40.72,1.33,0.55,-0.10,0.83,-0.12,-0.13,0.98,,,,,
13.834109,-2.46,40.72,1.34,0.55,-0.10,0.83,-0.12,-0.13,0.98,,,,,
13.843139,-2.46,40.71,1.34,0.55,-0.10,0.83,-0.12,-0.13,0.98,,,,,
13.853786,-2.46,40.71,1.34,0.55,-0.10,0.83,-0.12,-0.13,0.98,,,,,
13.862967,-2.46,40.71,1.34,0.55,-0.10,0.83,-0.12,-0.13,0.98,,,,,
13.873669,-2.47,40.71,1.34,0.55,-0.10,0.83,-0.12,-0.13,0.98,,,,,
13.884397,-2.47,40.71,1.34,0.55,-0.10,0.83,-0.12,-0.12,0.98,,,,,
13.893548,-2.47,40.68,1.32,0.55,-0.10,0.83,-0.12,-0.12,0.98,,,,,
13.904281,-2.48,40.66,1.29,0.55,-0.10,0.83,-0.12,-0.12,0.98,,,,,
13.913288,-2.47,40.63,1.26,0.55,-0.10,0.83,-0.12,-0.13,0.98,,,,,
13.924012,-2.47,40.61,1.23,0.55,-0.10,0.82,-0.12,-0.13,0.98,,,,,
13.933116,-2.47,40.58,1.20,0.55,-0.10,0.82,-0.11,-0.13,0.98,,,,,
13.943861,-2.46,40.56,1.17,0.55,-0.10,0.83,-0.11,-0.13,0.98,,,,,
13.954251,-2.47,40.53,1.15,0.55,-0.10,0.83,-0.12,-0.13,0.99,,,,,
13.964571,-2.46,40.50,1.12,0.55,-0.10,0.83,-0.11,-0.12,0.99,,,,,
13.974328,-2.46,40.47,1.10,0.55,-0.10,0.83,-0.11,-0.12,0.99,,,,,
13.983181,-2.46,40.45,1.08,0.55,-0.09,0.83,-0.11,-0.12,0.99,,,,,
13.993114,-2.45,40.42,1.05,0.55,-0.09,0.82,-0.11,-0.11,0.98,,,,,
14.004002,-2.45,40.40,1.03,0.55,-0.09,0.82,-0.11,-0.11,0.98,,,,,
14.013943,-2.45,40.37,1.01,0.55,-0.09,0.83,-0.11,-0.11,0.98,,,,,
14.024287,-2.45,40.35,0.98,0.55,-0.09,0.82,-0.11,-0.11,0.98,,,,,
14.032648,-2.45,40.32,0.96,0.55,-0.09,0.83,-0.11,-0.11,0.99,,,,,
14.044831,-2.44,40.30,0.93,0.55,-0.09,0.83,-0.11,-0.11,0.99,,,,,
14.053194,-2.44,40.27,0.91,0.55,-0.09,0.82,-0.11,-0.11,0.98,,,,,
14.062795,-2.45,40.25,0.89,0.55,-0.09,0.82,-0.10,-0.11,0.98,,,,,
14.073499,-2.44,40.23,0.86,0.56,-0.09,0.82,-0.10,-0.11,0.98,,,,,
14.089460,-2.44,40.21,0.84,0.56,-0.09,0.82,-0.10,-0.11,0.98,,,,,
14.096647,-2.44,40.19,0.82,0.56,-0.09,0.82,-0.10,-0.11,0.98,,,,,
14.103772,-2.43,40.17,0.79,0.56,-0.09,0.82,-0.10,-0.10,0.98,,,,,
14.112742,-2.43,40.14,0.77,0.56,-0.09,0.82,-0.09,-0.10,0.99,,,,,
14.123594,-2.43,40.12,0.74,0.56,-0.09,0.82,-0.09,-0.10,0.98,,,,,
14.132522,-2.43,40.10,0.72,0.56,-0.09,0.82,-0.09,-0.10,0.98,,,,,
14.143310,-2.42,40.08,0.70,0.56,-0.09,0.82,-0.09,-0.10,0.98,,,,,
14.154059,-2.42,40.05,0.68,0.56,-0.08,0.82,-0.10,-0.10,0.98,,,,,
14.163081,-2.42,40.03,0.66,0.56,-0.08,0.82,-0.10,-0.10,0.99,,,,,
14.173798,-2.42,40.01,0.64,0.56,-0.08,0.82,-0.09,-0.09,0.99,,,,,
14.182954,-2.42,39.99,0.61,0.56,-0.08,0.82,-0.09,-0.09,0.99,,,,,
14.193681,-2.42,39.97,0.60,0.56,-0.07,0.82,-0.09,-0.09,0.99,,,,,
14.202605,-2.42,39.95,0.58,0.56,-0.07,0.82,-0.09,-0.09,0.99,,,,,
14.213440,-2.42,39.93,0.55,0.57,-0.07,0.82,-0.09,-0.09,0.99,,,,,
14.222389,-2.41,39.91,0.53,0.57,-0.08,0.82,-0.09,-0.09,0.99,,,,,
14.233145,-2.41,39.89,0.51,0.57,-0.08,0.82,-0.09,-0.09,0.99,,,,,
14.243886,-2.41,39.87,0.49,0.57,-0.08,0.82,-0.09,-0.09,0.99,,,,,
14.252909,-2.41,39.85,0.46,0.57,-0.08,0.82,-0.08,-0.09,0.99,,,,,
14.263635,-2.41,39.83,0.44,0.57,-0.08,0.82,-0.08,-0.10,0.99,,,,,
14.272892,-2.41,39.81,0.41,0.56,-0.09,0.82,-0.09,-0.10,0.99,,,,,
14.284010,-2.41,39.79,0.39,0.56,-0.09,0.82,-0.08,-0.10,0.99,,,,,
14.293010,-2.41,39.77,0.36,0.56,-0.09,0.82,-0.08,-0.10,0.99,,,,,
14.303707,-2.40,39.75,0.34,0.56,-0.09,0.82,-0.08,-0.10,0.99,,,,,
14.312538,-2.40,39.73,0.32,0.57,-0.09,0.82,-0.08,-0.09,0.99,,,,,
14.323610,-2.40,39.71,0.30,0.57,-0.08,0.82,-0.08,-0.09,0.99,,,,,
14.332557,-2.39,39.70,0.29,0.57,-0.08,0.81,-0.08,-0.09,0.99,,,,,
14.343349,-2.39,39.68,0.26,0.57,-0.08,0.81,-0.08,-0.08,0.99,,,,,
14.352590,-2.39,39.66,0.24,0.57,-0.07,0.81,-0.08,-0.08,0.99,,,,,
14.363403,-2.39,39.64,0.23,0.57,-0.08,0.81,-0.08,-0.08,0.99,,,,,
14.372306,-2.39,39.62,0.21,0.57,-0.08,0.81,-0.08,-0.08,0.99,,,,,
14.383051,-2.39,39.61,0.18,0.57,-0.08,0.81,-0.07,-0.08,0.99,,,,,
14.393805,-2.39,39.60,0.16,0.57,-0.08,0.81,-0.07,-0.09,0.99,,,,,
14.402863,-2.39,39.58,0.14,0.57,-0.08,0.81,-0.07,-0.09,0.99,,,,,
14.413585,-2.39,39.56,0.12,0.57,-0.08,0.81,-0.07,-0.09,0.99,,,,,
14.422590,-2.39,39.54,0.10,0.57,-0.08,0.81,-0.07,-0.09,0.99,,,,,
14.433402,-2.39,39.53,0.07,0.57,-0.08,0.81,-0.07,-0.09,0.99,,,,,
14.442349,-2.38,39.51,0.05,0.57,-0.08,0.81,-0.08,-0.09,0.99,,,,,
14.453027,-2.38,39.49,0.04,0.57,-0.08,0.81,-0.08,-0.08,0.99,,,,,
14.463878,-2.38,39.47,0.02,0.57,-0.08,0.81,-0.08,-0.08,0.99,,,,,
14.472891,-2.38,39.45,0.00,0.57,-0.08,0.81,-0.08,-0.08,0.99,,,,,
14.483502,-2.38,39.44,-0.02,0.57,-0.08,0.81,-0.08,-0.08,0.99,,,,,
14.492424,-2.38,39.41,-0.03,0.57,-0.08,0.81,-0.08,-0.08,0.99,,,,,
14.503203,-2.37,39.40,-0.05,0.57,-0.08,0.81,-0.07,-0.08,0.99,,,,,
14.512153,-2.37,39.38,-0.07,0.57,-0.08,0.81,-0.07,-0.08,0.99,,,,,
14.522856,-2.37,39.37,-0.09,0.57,-0.08,0.81,-0.07,-0.08,0.99,,,,,
14.533635,-2.37,39.35,-0.11,0.57,-0.08,0.81,-0.07,-0.08,0.99,,,,,
14.542552,-2.37,39.34,-0.13,0.57,-0.08,0.81,-0.07,-0.08,0.99,,,,,
14.553364,-2.37,39.32,-0.15,0.57,-0.08,0.81,-0.07,-0.08,0.99,,,,,
14.562306,-2.37,39.31,-0.17,0.57,-0.08,0.81,-0.07,-0.08,0.99,,,,,
14.573081,-2.36,39.29,-0.18,0.57,-0.08,0.81,-0.06,-0.08,0.99,,,,,
14.582005,-2.36,39.28,-0.20,0.57,-0.08,0.81,-0.06,-0.08,0.99,,,,,
14.592761,-2.37,39.26,-0.22,0.58,-0.08,0.81,-0.06,-0.08,0.99,,,,,
14.603632,-2.36,39.25,-0.23,0.58,-0.07,0.81,-0.06,-0.07,0.99,,,,,
14.612483,-2.36,39.24,-0.24,0.58,-0.07,0.81,-0.06,-0.07,0.99,,,,,
14.623340,-2.35,39.22,-0.26,0.58,-0.07,0.81,-0.06,-0.06,0.99,,,,,
14.632322,-2.36,39.21,-0.27,0.58,-0.07,0.81,-0.06,-0.06,0.99,,,,,
14.643072,-2.35,39.19,-0.28,0.58,-0.06,0.81,-0.06,-0.06,0.99,,,,,
14.652080,-2.36,39.18,-0.29,0.57,-0.06,0.81,-0.06,-0.06,0.99,,,,,
14.662830,-2.36,39.16,-0.31,0.57,-0.06,0.81,-0.06,-0.06,0.99,,,,,
14.673553,-2.35,39.15,-0.32,0.58,-0.06,0.81,-0.06,-0.06,0.99,,,,,
14.682484,-2.35,39.13,-0.34,0.58,-0.06,0.81,-0.06,-0.06,0.99,,,,,
14.693244,-2.35,39.12,-0.35,0.58,-0.06,0.81,-0.06,-0.06,0.99,,,,,
14.702186,-2.35,39.11,-0.37,0.58,-0.06,0.81,-0.06,-0.06,0.99,,,,,
14.712929,-2.35,39.09,-0.39,0.58,-0.07,0.81,-0.06,-0.06,0.99,,,,,
14.721880,-2.35,39.08,-0.40,0.58,-0.07,0.81,-0.06,-0.06,0.99,,,,,
14.732668,-2.35,39.07,-0.42,0.58,-0.07,0.81,-0.06,-0.06,0.99,,,,,
14.743422,-2.35,39.05,-0.43,0.57,-0.07,0.81,-0.06,-0.06,0.99,,,,,
14.752369,-2.34,39.04,-0.45,0.57,-0.07,0.81,-0.06,-0.06,0.99,,,,,
14.763116,-2.35,39.03,-0.47,0.58,-0.07,0.81,-0.06,-0.06,0.99,,,,,
14.772024,-2.34,39.01,-0.48,0.58,-0.07,0.81,-0.06,-0.06,0.99,,,,,
14.782795,-2.34,39.00,-0.50,0.58,-0.07,0.81,-0.06,-0.06,0.99,,,,,
14.793550,-2.34,38.99,-0.51,0.58,-0.07,0.81,-0.06,-0.06,0.99,,,,,
14.802565,-2.34,38.97,-0.52,0.58,-0.07,0.80,-0.06,-0.06,0.99,,,,,
14.813338,-2.34,38.96,-0.54,0.58,-0.07,0.80,-0.05,-0.06,0.99,,,,,
14.822299,-2.34,38.95,-0.56,0.58,-0.07,0.80,-0.05,-0.06,0.99,,,,,
14.833173,-2.34,38.94,-0.57,0.58,-0.07,0.80,-0.05,-0.06,0.99,,,,,
14.842129,-2.34,38.92,-0.58,0.58,-0.07,0.81,-0.05,-0.06,0.99,,,,,
14.852898,-2.34,38.90,-0.60,0.58,-0.07,0.81,-0.05,-0.06,0.99,,,,,
14.861826,-2.33,38.90,-0.61,0.58,-0.07,0.81,-0.05,-0.06,0.99,,,,,
14.872658,-2.34,38.88,-0.63,0.58,-0.07,0.81,-0.06,-0.06,0.99,,,,,
14.883568,-2.34,38.87,-0.64,0.58,-0.07,0.81,-0.06,-0.06,0.99,,,,,
14.892523,-2.33,38.85,-0.66,0.57,-0.07,0.81,-0.06,-0.06,0.99,,,,,
14.903228,-2.33,38.84,-0.67,0.58,-0.07,0.80,-0.05,-0.06,0.99,,,,,
14.912146,-2.34,38.83,-0.69,0.58,-0.07,0.80,-0.05,-0.06,0.99,,,,,
14.922949,-2.33,38.81,-0.70,0.58,-0.07,0.81,-0.05,-0.06,0.99,,,,,
14.931908,-2.33,38.81,-0.71,0.58,-0.07,0.81,-0.05,-0.06,0.99,,,,,
14.942660,-2.33,38.79,-0.73,0.58,-0.07,0.81,-0.05,-0.06,0.99,,,,,
14.953576,-2.33,38.78,-0.74,0.58,-0.07,0.80,-0.05,-0.06,0.99,,,,,
14.963997,-2.33,38.77,-0.75,0.58,-0.06,0.81,-0.05,-0.05,0.99,,,,,
14.972551,-2.33,38.75,-0.76,0.58,-0.06,0.81,-0.05,-0.05,0.99,,,,,
14.982832,-2.32,38.74,-0.77,0.58,-0.06,0.81,-0.05,-0.05,0.99,,,,,
14.993133,-2.33,38.73,-0.79,0.58,-0.06,0.80,-0.05,-0.05,0.99,,,,,
15.003030,-2.32,38.72,-0.80,0.58,-0.06,0.80,-0.05,-0.05,0.99,,,,,
15.012194,-2.33,38.71,-0.81,0.58,-0.06,0.80,-0.05,-0.05,0.99,,,,,
15.023411,-2.33,38.70,-0.82,0.58,-0.06,0.80,-0.05,-0.05,0.99,17-05-2019 03:54:17,nan,nan,nan,nan
15.034881,-2.32,38.69,-0.83,0.58,-0.06,0.80,-0.05,-0.05,0.99,17-05-2019 03:54:17,nan,nan,nan,nan
15.043073,-2.33,38.68,-0.85,0.58,-0.06,0.80,-0.05,-0.05,0.99,17-05-2019 03:54:17,nan,nan,nan,nan
15.053482,-2.32,38.67,-0.86,0.58,-0.06,0.80,-0.04,-0.05,0.99,17-05-2019 03:54:17,nan,nan,nan,nan
15.061621,-2.33,38.66,-0.87,0.58,-0.06,0.80,-0.05,-0.05,0.99,17-05-2019 03:54:17,nan,nan,nan,nan
15.072586,-2.32,38.65,-0.88,0.58,-0.06,0.80,-0.04,-0.05,0.99,17-05-2019 03:54:17,nan,nan,nan,nan
15.081691,-2.32,38.64,-0.90,0.58,-0.07,0.80,-0.04,-0.05,0.99,17-05-2019 03:54:17,nan,nan,nan,nan
15.092462,-2.32,38.62,-0.90,0.58,-0.07,0.80,-0.04,-0.05,0.99,17-05-2019 03:54:17,nan,nan,nan,nan
15.101567,-2.32,38.61,-0.92,0.58,-0.07,0.80,-0.04,-0.05,0.99,17-05-2019 03:54:17,nan,nan,nan,nan
15.112356,-2.32,38.61,-0.92,0.58,-0.07,0.80,-0.05,-0.05,0.99,17-05-2019 03:54:17,nan,nan,nan,nan
15.123196,-2.32,38.59,-0.94,0.58,-0.06,0.80,-0.05,-0.05,0.99,17-05-2019 03:54:17,nan,nan,nan,nan
15.132246,-2.32,38.58,-0.95,0.58,-0.06,0.80,-0.05,-0.05,0.99,17-05-2019 03:54:17,nan,nan,nan,nan
15.143135,-2.31,38.57,-0.95,0.58,-0.06,0.80,-0.05,-0.05,0.99,17-05-2019 03:54:17,nan,nan,nan,nan
15.152165,-2.32,38.56,-0.97,0.58,-0.06,0.80,-0.05,-0.05,0.99,17-05-2019 03:54:17,nan,nan,nan,nan
15.163056,-2.31,38.55,-0.97,0.58,-0.06,0.81,-0.05,-0.04,0.99,17-05-2019 03:54:17,nan,nan,nan,nan
15.172699,-2.31,38.53,-0.98,0.58,-0.06,0.81,-0.05,-0.04,0.99,17-05-2019 03:54:17,nan,nan,nan,nan
15.181734,-2.31,38.52,-0.99,0.58,-0.06,0.81,-0.05,-0.04,0.99,17-05-2019 03:54:17,nan,nan,nan,nan
15.192550,-2.31,38.51,-1.00,0.58,-0.06,0.81,-0.05,-0.04,0.99,17-05-2019 03:54:17,nan,nan,nan,nan
15.201541,-2.31,38.50,-1.01,0.58,-0.06,0.80,-0.05,-0.04,0.99,17-05-2019 03:54:17,nan,nan,nan,nan
15.212357,-2.31,38.49,-1.02,0.58,-0.06,0.80,-0.04,-0.04,0.99,17-05-2019 03:54:17,nan,nan,nan,nan
15.223108,-2.31,38.48,-1.03,0.58,-0.06,0.80,-0.04,-0.04,0.99,17-05-2019 03:54:17,nan,nan,nan,nan
15.232113,-2.31,38.47,-1.04,0.58,-0.06,0.80,-0.04,-0.04,0.99,17-05-2019 03:54:17,nan,nan,nan,nan
15.243325,-2.31,38.46,-1.05,0.58,-0.06,0.80,-0.04,-0.04,0.99,17-05-2019 03:54:17,nan,nan,nan,nan
15.252366,-2.31,38.46,-1.06,0.59,-0.06,0.80,-0.04,-0.04,0.99,17-05-2019 03:54:17,nan,nan,nan,nan
15.261485,-2.31,38.45,-1.07,0.59,-0.06,0.80,-0.04,-0.04,0.99,17-05-2019 03:54:17,nan,nan,nan,nan
15.272291,-2.30,38.44,-1.07,0.59,-0.06,0.80,-0.04,-0.04,0.99,17-05-2019 03:54:17,nan,nan,nan,nan
15.281550,-2.31,38.43,-1.09,0.58,-0.06,0.80,-0.04,-0.04,0.99,17-05-2019 03:54:17,nan,nan,nan,nan
15.292408,-2.30,38.42,-1.10,0.58,-0.06,0.80,-0.04,-0.04,0.99,17-05-2019 03:54:17,nan,nan,nan,nan
15.301684,-2.31,38.41,-1.10,0.58,-0.06,0.80,-0.04,-0.04,0.99,17-05-2019 03:54:17,nan,nan,nan,nan
15.312518,-2.30,38.40,-1.11,0.58,-0.06,0.80,-0.04,-0.04,0.99,17-05-2019 03:54:17,nan,nan,nan,nan
15.321600,-2.30,38.39,-1.12,0.58,-0.05,0.80,-0.04,-0.04,0.99,17-05-2019 03:54:17,nan,nan,nan,nan
15.332395,-2.31,38.38,-1.13,0.58,-0.05,0.80,-0.04,-0.03,0.99,17-05-2019 03:54:17,nan,nan,nan,nan
15.341485,-2.30,38.37,-1.13,0.58,-0.05,0.80,-0.04,-0.03,0.99,17-05-2019 03:54:17,nan,nan,nan,nan
15.352330,-2.30,38.37,-1.14,0.58,-0.05,0.80,-0.04,-0.03,0.99,17-05-2019 03:54:17,nan,nan,nan,nan
15.361420,-2.31,38.36,-1.15,0.58,-0.05,0.80,-0.04,-0.04,0.99,17-05-2019 03:54:17,nan,nan,nan,nan
15.372284,-2.30,38.34,-1.15,0.58,-0.06,0.80,-0.04,-0.04,0.99,17-05-2019 03:54:17,nan,nan,nan,nan
15.381340,-2.30,38.34,-1.17,0.58,-0.06,0.80,-0.04,-0.04,0.99,17-05-2019 03:54:17,nan,nan,nan,nan
15.392191,-2.30,38.33,-1.18,0.58,-0.05,0.80,-0.04,-0.04,0.99,17-05-2019 03:54:17,nan,nan,nan,nan
15.403049,-2.30,38.32,-1.18,0.58,-0.06,0.80,-0.04,-0.04,0.99,17-05-2019 03:54:17,nan,nan,nan,nan
15.412063,-2.30,38.31,-1.19,0.58,-0.06,0.80,-0.04,-0.04,0.99,17-05-2019 03:54:17,nan,nan,nan,nan
15.422914,-2.30,38.30,-1.20,0.58,-0.06,0.80,-0.04,-0.04,0.99,17-05-2019 03:54:17,nan,nan,nan,nan
15.431953,-2.30,38.30,-1.20,0.59,-0.06,0.80,-0.04,-0.04,0.99,17-05-2019 03:54:17,nan,nan,nan,nan
15.442804,-2.30,38.29,-1.21,0.59,-0.06,0.80,-0.03,-0.04,0.99,17-05-2019 03:54:17,nan,nan,nan,nan
15.451832,-2.30,38.28,-1.22,0.59,-0.06,0.80,-0.03,-0.04,0.99,17-05-2019 03:54:17,nan,nan,nan,nan
15.462676,-2.30,38.27,-1.23,0.59,-0.06,0.80,-0.03,-0.04,0.99,17-05-2019 03:54:17,nan,nan,nan,nan
15.471734,-2.29,38.27,-1.23,0.59,-0.05,0.80,-0.03,-0.03,0.99,17-05-2019 03:54:17,nan,nan,nan,nan
15.482566,-2.30,38.26,-1.24,0.59,-0.05,0.80,-0.03,-0.03,0.99,17-05-2019 03:54:17,nan,nan,nan,nan
15.491651,-2.30,38.25,-1.25,0.59,-0.05,0.80,-0.03,-0.03,0.99,17-05-2019 03:54:17,nan,nan,nan,nan
15.502483,-2.29,38.24,-1.25,0.58,-0.05,0.80,-0.04,-0.03,0.99,17-05-2019 03:54:17,nan,nan,nan,nan
15.511599,-2.30,38.23,-1.26,0.58,-0.05,0.80,-0.04,-0.03,0.99,17-05-2019 03:54:17,nan,nan,nan,nan
15.522396,-2.30,38.22,-1.27,0.58,-0.05,0.80,-0.04,-0.03,0.99,17-05-2019 03:54:17,nan,nan,nan,nan
15.531506,-2.29,38.21,-1.28,0.58,-0.06,0.80,-0.04,-0.03,0.99,17-05-2019 03:54:17,nan,nan,nan,nan
15.542338,-2.30,38.21,-1.29,0.58,-0.06,0.80,-0.04,-0.04,0.99,17-05-2019 03:54:17,nan,nan,nan,nan
15.551404,-2.29,38.20,-1.30,0.58,-0.06,0.80,-0.04,-0.04,0.99,17-05-2019 03:54:17,nan,nan,nan,nan
15.562260,-2.30,38.19,-1.31,0.58,-0.06,0.80,-0.03,-0.03,0.99,17-05-2019 03:54:17,nan,nan,nan,nan
15.571259,-2.29,38.18,-1.31,0.58,-0.06,0.80,-0.03,-0.03,0.99,17-05-2019 03:54:17,nan,nan,nan,nan
15.581492,-2.29,38.18,-1.32,0.59,-0.06,0.80,-0.03,-0.03,0.99,17-05-2019 03:54:17,nan,nan,nan,nan
15.591878,-2.30,38.17,-1.33,0.59,-0.06,0.80,-0.03,-0.03,0.99,17-05-2019 03:54:17,nan,nan,nan,nan
15.602373,-2.29,38.17,-1.33,0.59,-0.05,0.80,-0.03,-0.03,0.99,17-05-2019 03:54:17,nan,nan,nan,nan
15.612877,-2.29,38.16,-1.34,0.59,-0.05,0.79,-0.03,-0.03,0.99,17-05-2019 03:54:17,nan,nan,nan,nan
15.623010,-2.29,38.15,-1.34,0.59,-0.05,0.79,-0.02,-0.03,0.99,17-05-2019 03:54:17,nan,nan,nan,nan
15.631409,-2.29,38.14,-1.35,0.59,-0.05,0.79,-0.02,-0.02,0.99,17-05-2019 03:54:17,nan,nan,nan,nan
15.642331,-2.29,38.14,-1.36,0.59,-0.05,0.79,-0.02,-0.03,0.99,17-05-2019 03:54:17,nan,nan,nan,nan
15.651371,-2.29,38.14,-1.36,0.59,-0.05,0.79,-0.02,-0.03,0.99,17-05-2019 03:54:17,nan,nan,nan,nan
15.662196,-2.29,38.14,-1.37,0.59,-0.05,0.79,-0.02,-0.03,0.99,17-05-2019 03:54:17,nan,nan,nan,nan
15.671258,-2.29,38.13,-1.38,0.59,-0.05,0.79,-0.02,-0.03,0.99,17-05-2019 03:54:17,nan,nan,nan,nan
15.682063,-2.29,38.12,-1.38,0.59,-0.05,0.79,-0.03,-0.03,0.99,17-05-2019 03:54:17,nan,nan,nan,nan
15.691084,-2.30,38.11,-1.39,0.59,-0.05,0.80,-0.03,-0.03,0.99,17-05-2019 03:54:17,nan,nan,nan,nan
15.701936,-2.29,38.11,-1.40,0.59,-0.05,0.80,-0.03,-0.03,0.99,17-05-2019 03:54:17,nan,nan,nan,nan
15.712822,-2.29,38.10,-1.41,0.59,-0.05,0.80,-0.03,-0.03,0.99,17-05-2019 03:54:17,nan,nan,nan,nan
15.721871,-2.29,38.10,-1.41,0.59,-0.05,0.79,-0.03,-0.03,0.99,17-05-2019 03:54:17,nan,nan,nan,nan
15.732695,-2.29,38.09,-1.42,0.59,-0.05,0.79,-0.02,-0.03,0.99,17-05-2019 03:54:17,nan,nan,nan,nan
15.741654,-2.29,38.08,-1.43,0.59,-0.05,0.79,-0.02,-0.03,0.99,17-05-2019 03:54:17,nan,nan,nan,nan
15.752978,-2.29,38.07,-1.43,0.59,-0.05,0.79,-0.02,-0.02,0.99,17-05-2019 03:54:17,nan,nan,nan,nan
15.762002,-2.28,38.07,-1.44,0.59,-0.05,0.79,-0.03,-0.02,0.99,17-05-2019 03:54:17,nan,nan,nan,nan
15.771073,-2.28,38.07,-1.45,0.59,-0.05,0.79,-0.02,-0.02,0.99,17-05-2019 03:54:17,nan,nan,nan,nan
15.781778,-2.29,38.06,-1.46,0.59,-0.05,0.79,-0.02,-0.02,0.99,17-05-2019 03:54:17,nan,nan,nan,nan
15.792651,-2.28,38.06,-1.46,0.59,-0.05,0.79,-0.02,-0.02,0.99,17-05-2019 03:54:17,nan,nan,nan,nan
15.801707,-2.29,38.05,-1.47,0.59,-0.05,0.79,-0.02,-0.03,0.99,17-05-2019 03:54:17,nan,nan,nan,nan
15.812520,-2.28,38.04,-1.48,0.59,-0.05,0.79,-0.02,-0.03,0.99,17-05-2019 03:54:17,nan,nan,nan,nan
15.822732,-2.28,38.04,-1.49,0.59,-0.06,0.79,-0.02,-0.03,0.99,17-05-2019 03:54:17,nan,nan,nan,nan
15.831748,-2.28,38.04,-1.50,0.59,-0.06,0.80,-0.02,-0.03,0.99,17-05-2019 03:54:17,nan,nan,nan,nan
15.842548,-2.28,38.03,-1.51,0.59,-0.06,0.80,-0.02,-0.03,0.99,17-05-2019 03:54:17,nan,nan,nan,nan
15.851528,-2.28,38.03,-1.51,0.59,-0.06,0.80,-0.02,-0.03,0.99,17-05-2019 03:54:17,nan,nan,nan,nan
15.862340,-2.28,38.02,-1.52,0.59,-0.05,0.80,-0.02,-0.03,0.99,17-05-2019 03:54:17,nan,nan,nan,nan
15.871391,-2.28,38.01,-1.52,0.59,-0.05,0.80,-0.02,-0.03,0.99,17-05-2019 03:54:17,nan,nan,nan,nan
15.882147,-2.28,38.00,-1.53,0.59,-0.05,0.80,-0.02,-0.02,0.99,17-05-2019 03:54:17,nan,nan,nan,nan
15.891248,-2.28,38.00,-1.54,0.59,-0.05,0.80,-0.03,-0.02,0.99,17-05-2019 03:54:17,nan,nan,nan,nan
15.902163,-2.28,37.99,-1.54,0.59,-0.05,0.80,-0.03,-0.02,0.99,17-05-2019 03:54:17,nan,nan,nan,nan
15.911301,-2.27,37.98,-1.54,0.59,-0.05,0.80,-0.03,-0.02,0.99,17-05-2019 03:54:17,nan,nan,nan,nan
15.922157,-2.28,37.98,-1.55,0.59,-0.05,0.80,-0.03,-0.02,0.99,17-05-2019 03:54:17,nan,nan,nan,nan
15.931224,-2.28,37.97,-1.55,0.59,-0.05,0.80,-0.03,-0.03,0.99,17-05-2019 03:54:17,nan,nan,nan,nan
15.942462,-2.28,37.97,-1.56,0.59,-0.05,0.80,-0.03,-0.03,0.99,17-05-2019 03:54:17,nan,nan,nan,nan
15.952754,-2.28,37.96,-1.57,0.59,-0.05,0.80,-0.03,-0.03,0.99,17-05-2019 03:54:17,nan,nan,nan,nan
15.963177,-2.28,37.95,-1.57,0.59,-0.05,0.80,-0.02,-0.03,0.99,17-05-2019 03:54:17,nan,nan,nan,nan
15.971514,-2.28,37.95,-1.58,0.59,-0.05,0.80,-0.02,-0.03,0.99,17-05-2019 03:54:17,nan,nan,nan,nan
15.981398,-2.28,37.95,-1.58,0.59,-0.05,0.80,-0.02,-0.03,0.99,17-05-2019 03:54:17,nan,nan,nan,nan
15.991845,-2.28,37.94,-1.59,0.59,-0.05,0.79,-0.02,-0.03,0.99,17-05-2019 03:54:17,nan,nan,nan,nan
16.002737,-2.28,37.94,-1.59,0.59,-0.05,0.80,-0.02,-0.02,0.99,17-05-2019 03:54:17,nan,nan,nan,nan
16.011338,-2.28,37.93,-1.59,0.59,-0.05,0.79,-0.02,-0.02,0.99,17-05-2019 03:54:17,nan,nan,nan,nan
16.021642,-2.28,37.93,-1.59,0.59,-0.05,0.79,-0.02,-0.02,0.99,17-05-2019 03:54:17,nan,nan,nan,nan
16.032038,-2.28,37.92,-1.60,0.59,-0.05,0.79,-0.02,-0.02,0.99,17-05-2019 03:54:17,nan,nan,nan,nan
16.042493,-2.28,37.92,-1.60,0.59,-0.04,0.80,-0.02,-0.02,0.99,17-05-2019 03:54:17,nan,nan,nan,nan
16.052868,-2.28,37.91,-1.60,0.59,-0.04,0.80,-0.02,-0.02,0.99,17-05-2019 03:54:17,nan,nan,nan,nan
16.060864,-2.27,37.91,-1.61,0.59,-0.05,0.80,-0.02,-0.02,0.99,17-05-2019 03:54:17,nan,nan,nan,nan
16.071760,-2.28,37.91,-1.62,0.59,-0.05,0.80,-0.02,-0.02,0.99,17-05-2019 03:54:17,nan,nan,nan,nan
16.080725,-2.28,37.90,-1.62,0.59,-0.05,0.80,-0.02,-0.02,0.99,17-05-2019 03:54:17,nan,nan,nan,nan
16.091623,-2.28,37.89,-1.62,0.59,-0.05,0.80,-0.02,-0.02,0.99,17-05-2019 03:54:17,nan,nan,nan,nan
16.100684,-2.27,37.88,-1.63,0.59,-0.05,0.80,-0.02,-0.02,0.99,17-05-2019 03:54:17,nan,nan,nan,nan
16.111506,-2.28,37.88,-1.64,0.59,-0.05,0.80,-0.02,-0.02,0.99,17-05-2019 03:54:17,nan,nan,nan,nan
16.122352,-2.28,37.88,-1.64,0.59,-0.05,0.80,-0.02,-0.03,0.99,17-05-2019 03:54:17,nan,nan,nan,nan
16.131384,-2.27,37.87,-1.64,0.59,-0.05,0.80,-0.02,-0.02,0.99,17-05-2019 03:54:17,nan,nan,nan,nan
16.142220,-2.27,37.86,-1.64,0.59,-0.05,0.80,-0.02,-0.02,0.99,17-05-2019 03:54:17,nan,nan,nan,nan
16.151254,-2.27,37.86,-1.65,0.59,-0.05,0.79,-0.02,-0.02,0.99,17-05-2019 03:54:17,nan,nan,nan,nan
16.162010,-2.27,37.85,-1.65,0.59,-0.04,0.79,-0.02,-0.02,0.99,17-05-2019 03:54:17,nan,nan,nan,nan
16.171045,-2.27,37.85,-1.65,0.59,-0.04,0.79,-0.02,-0.01,0.99,17-05-2019 03:54:17,nan,nan,nan,nan
16.181817,-2.27,37.85,-1.65,0.59,-0.04,0.79,-0.02,-0.01,0.99,17-05-2019 03:54:17,nan,nan,nan,nan
16.190946,-2.27,37.85,-1.66,0.59,-0.04,0.79,-0.02,-0.01,0.99,17-05-2019 03:54:17,nan,nan,nan,nan
16.201796,-2.27,37.84,-1.66,0.59,-0.04,0.79,-0.01,-0.01,0.99,17-05-2019 03:54:17,nan,nan,nan,nan
16.210813,-2.27,37.84,-1.67,0.60,-0.04,0.79,-0.01,-0.01,0.99,17-05-2019 03:54:17,nan,nan,nan,nan
16.221622,-2.27,37.84,-1.67,0.60,-0.04,0.79,-0.01,-0.02,0.99,17-05-2019 03:54:17,nan,nan,nan,nan
16.230634,-2.27,37.83,-1.67,0.60,-0.05,0.79,-0.01,-0.02,0.99,17-05-2019 03:54:17,nan,nan,nan,nan
16.241583,-2.28,37.83,-1.68,0.60,-0.05,0.79,-0.01,-0.02,0.99,17-05-2019 03:54:17,nan,nan,nan,nan
16.250678,-2.27,37.82,-1.69,0.60,-0.05,0.79,-0.01,-0.02,0.99,17-05-2019 03:54:17,nan,nan,nan,nan
16.261518,-2.27,37.82,-1.69,0.60,-0.05,0.79,-0.01,-0.02,0.99,17-05-2019 03:54:17,nan,nan,nan,nan
16.270537,-2.27,37.82,-1.69,0.60,-0.05,0.79,-0.02,-0.02,0.99,17-05-2019 03:54:17,nan,nan,nan,nan
16.281265,-2.27,37.81,-1.70,0.59,-0.05,0.79,-0.02,-0.02,0.99,17-05-2019 03:54:17,nan,nan,nan,nan
16.292071,-2.27,37.81,-1.70,0.60,-0.04,0.79,-0.02,-0.02,0.99,17-05-2019 03:54:17,nan,nan,nan,nan
16.301117,-2.27,37.81,-1.70,0.60,-0.04,0.79,-0.01,-0.01,0.99,17-05-2019 03:54:17,nan,nan,nan,nan
16.311939,-2.26,37.80,-1.71,0.60,-0.04,0.79,-0.01,-0.01,0.99,17-05-2019 03:54:17,nan,nan,nan,nan
16.320993,-2.26,37.80,-1.71,0.60,-0.04,0.79,-0.01,-0.01,0.99,17-05-2019 03:54:17,nan,nan,nan,nan
16.331902,-2.26,37.79,-1.71,0.60,-0.04,0.79,-0.01,-0.01,0.99,17-05-2019 03:54:17,nan,nan,nan,nan
16.340953,-2.27,37.79,-1.72,0.60,-0.04,0.79,-0.01,-0.01,0.99,17-05-2019 03:54:17,nan,nan,nan,nan
16.351799,-2.27,37.79,-1.72,0.60,-0.04,0.80,-0.01,-0.01,1.00,17-05-2019 03:54:17,nan,nan,nan,nan
16.360869,-2.27,37.79,-1.72,0.60,-0.04,0.80,-0.02,-0.01,0.99,17-05-2019 03:54:17,nan,nan,nan,nan
16.371721,-2.26,37.78,-1.73,0.59,-0.05,0.79,-0.02,-0.02,0.99,17-05-2019 03:54:17,nan,nan,nan,nan
16.381388,-2.27,37.78,-1.74,0.59,-0.05,0.79,-0.02,-0.02,0.99,17-05-2019 03:54:17,nan,nan,nan,nan
16.395111,-2.27,37.77,-1.74,0.59,-0.05,0.79,-0.02,-0.02,0.99,17-05-2019 03:54:17,nan,nan,nan,nan
16.402329,-2.26,37.77,-1.75,0.59,-0.05,0.79,-0.02,-0.02,0.99,17-05-2019 03:54:17,nan,nan,nan,nan
16.411357,-2.26,37.76,-1.75,0.59,-0.05,0.79,-0.02,-0.02,0.99,17-05-2019 03:54:17,nan,nan,nan,nan
16.420371,-2.26,37.76,-1.76,0.59,-0.05,0.79,-0.02,-0.02,0.99,17-05-2019 03:54:17,nan,nan,nan,nan
16.431143,-2.26,37.76,-1.76,0.59,-0.05,0.79,-0.02,-0.02,0.99,17-05-2019 03:54:17,nan,nan,nan,nan
16.441991,-2.26,37.75,-1.76,0.59,-0.05,0.79,-0.02,-0.02,0.99,17-05-2019 03:54:17,nan,nan,nan,nan
16.451040,-2.26,37.75,-1.76,0.59,-0.04,0.79,-0.02,-0.01,0.99,17-05-2019 03:54:17,nan,nan,nan,nan
16.461871,-2.26,37.75,-1.77,0.59,-0.04,0.79,-0.02,-0.01,0.99,17-05-2019 03:54:17,nan,nan,nan,nan
904.478636,-2.26,37.74,-1.77,0.59,-0.04,0.79,-0.01,-0.01,0.99,17-05-2019 03:54:17,nan,nan,nan,nan
904.489229,-2.26,37.74,-1.77,0.59,-0.04,0.79,-0.02,-0.01,0.99,17-05-2019 03:54:17,nan,nan,nan,nan
904.496688,-2.26,37.73,-1.78,0.60,-0.04,0.79,-0.02,-0.01,0.99,17-05-2019 03:54:17,nan,nan,nan,nan
904.504140,-2.26,37.73,-1.78,0.60,-0.04,0.80,-0.02,-0.01,0.99,17-05-2019 03:54:17,nan,nan,nan,nan
904.512211,-2.26,37.72,-1.79,0.59,-0.04,0.79,-0.02,-0.01,0.99,17-05-2019 03:54:17,nan,nan,nan,nan
904.519425,-2.26,37.72,-1.79,0.59,-0.04,0.79,-0.02,-0.01,0.99,17-05-2019 03:54:17,nan,nan,nan,nan
904.526738,-2.26,37.72,-1.79,0.59,-0.04,0.80,-0.02,-0.01,0.99,17-05-2019 03:54:17,nan,nan,nan,nan
904.534038,-2.26,37.71,-1.79,0.59,-0.04,0.80,-0.02,-0.01,0.99,17-05-2019 03:54:17,nan,nan,nan,nan
904.543056,-2.26,37.71,-1.80,0.59,-0.04,0.79,-0.02,-0.01,0.99,17-05-2019 03:54:17,nan,nan,nan,nan
904.552079,-2.26,37.70,-1.80,0.59,-0.04,0.79,-0.02,-0.01,0.99,17-05-2019 03:54:17,nan,nan,nan,nan
904.562995,-2.26,37.70,-1.81,0.59,-0.05,0.79,-0.02,-0.01,0.99,17-05-2019 03:54:17,nan,nan,nan,nan
904.572038,-2.25,37.69,-1.81,0.59,-0.05,0.80,-0.02,-0.01,0.99,17-05-2019 03:54:17,nan,nan,nan,nan
904.582889,-2.25,37.69,-1.81,0.59,-0.04,0.80,-0.02,-0.01,0.99,17-05-2019 03:54:17,nan,nan,nan,nan
904.593519,-2.26,37.68,-1.82,0.59,-0.04,0.80,-0.02,-0.01,0.99,17-05-2019 03:54:17,nan,nan,nan,nan
904.602334,-2.26,37.68,-1.82,0.59,-0.04,0.80,-0.02,-0.01,0.99,17-05-2019 03:54:17,nan,nan,nan,nan
904.612973,-2.26,37.68,-1.83,0.59,-0.04,0.80,-0.02,-0.01,0.99,17-05-2019 03:54:17,nan,nan,nan,nan
904.623549,-2.26,37.67,-1.83,0.59,-0.04,0.80,-0.02,-0.01,0.99,17-05-2019 03:54:17,nan,nan,nan,nan
904.632353,-2.25,37.67,-1.84,0.59,-0.04,0.80,-0.02,-0.01,0.99,17-05-2019 03:54:17,nan,nan,nan,nan
904.642928,-2.25,37.66,-1.84,0.59,-0.04,0.80,-0.02,-0.01,0.99,17-05-2019 03:54:17,nan,nan,nan,nan
904.653562,-2.25,37.66,-1.84,0.59,-0.04,0.80,-0.02,-0.01,0.99,17-05-2019 03:54:17,nan,nan,nan,nan
904.662401,-2.25,37.65,-1.84,0.59,-0.04,0.79,-0.02,-0.01,0.99,17-05-2019 03:54:17,nan,nan,nan,nan
904.672986,-2.26,37.65,-1.85,0.59,-0.04,0.79,-0.02,-0.01,0.99,17-05-2019 03:54:17,nan,nan,nan,nan
904.683585,-2.26,37.65,-1.85,0.59,-0.04,0.79,-0.02,-0.01,0.99,17-05-2019 03:54:17,nan,nan,nan,nan
904.692408,-2.25,37.65,-1.86,0.59,-0.04,0.79,-0.02,-0.01,0.99,17-05-2019 03:54:17,nan,nan,nan,nan
904.703082,-2.25,37.64,-1.86,0.59,-0.04,0.79,-0.01,-0.01,0.99,17-05-2019 03:54:17,nan,nan,nan,nan
904.711905,-2.25,37.64,-1.86,0.59,-0.04,0.79,-0.01,-0.01,0.99,17-05-2019 03:54:17,nan,nan,nan,nan
904.722478,-2.25,37.64,-1.87,0.59,-0.04,0.79,-0.01,-0.01,0.99,17-05-2019 03:54:17,nan,nan,nan,nan
904.733087,-2.26,37.63,-1.87,0.59,-0.04,0.79,-0.01,-0.01,0.99,17-05-2019 03:54:17,nan,nan,nan,nan
904.741995,-2.25,37.63,-1.88,0.59,-0.04,0.79,-0.01,-0.01,0.99,17-05-2019 03:54:17,nan,nan,nan,nan
904.752584,-2.25,37.63,-1.89,0.60,-0.04,0.79,-0.01,-0.01,0.99,17-05-2019 03:54:17,nan,nan,nan,nan
904.763197,-2.25,37.62,-1.89,0.60,-0.05,0.79,-0.01,-0.01,0.99,17-05-2019 03:54:17,nan,nan,nan,nan
904.771966,-2.25,37.62,-1.89,0.60,-0.05,0.79,-0.01,-0.01,0.99,17-05-2019 03:54:17,nan,nan,nan,nan
904.782523,-2.25,37.62,-1.90,0.60,-0.05,0.79,-0.01,-0.02,0.99,17-05-2019 03:54:17,nan,nan,nan,nan
904.793069,-2.25,37.62,-1.91,0.60,-0.05,0.79,-0.01,-0.01,0.99,17-05-2019 03:54:17,nan,nan,nan,nan
904.801940,-2.25,37.62,-1.91,0.60,-0.05,0.79,-0.01,-0.01,0.99,17-05-2019 03:54:17,nan,nan,nan,nan
904.812566,-2.25,37.62,-1.91,0.60,-0.05,0.79,-0.01,-0.01,0.99,17-05-2019 03:54:17,nan,nan,nan,nan
904.823307,-2.24,37.62,-1.92,0.60,-0.05,0.79,-0.01,-0.01,0.99,17-05-2019 03:54:17,nan,nan,nan,nan
904.832140,-2.25,37.61,-1.92,0.60,-0.05,0.79,-0.01,-0.01,0.99,17-05-2019 03:54:17,nan,nan,nan,nan
904.842756,-2.25,37.61,-1.93,0.60,-0.04,0.79,-0.01,-0.01,0.99,17-05-2019 03:54:17,nan,nan,nan,nan
904.853335,-2.25,37.61,-1.93,0.60,-0.04,0.79,-0.01,-0.01,0.99,17-05-2019 03:54:17,nan,nan,nan,nan
904.862172,-2.25,37.60,-1.94,0.59,-0.04,0.79,-0.01,-0.01,0.99,17-05-2019 03:54:17,nan,nan,nan,nan
904.872765,-2.25,37.60,-1.94,0.59,-0.04,0.79,-0.01,-0.01,0.99,17-05-2019 03:54:17,nan,nan,nan,nan
904.883364,-2.24,37.59,-1.94,0.59,-0.05,0.79,-0.01,-0.01,0.99,17-05-2019 03:54:17,nan,nan,nan,nan
904.892173,-2.24,37.59,-1.94,0.59,-0.04,0.79,-0.01,-0.01,0.99,17-05-2019 03:54:17,nan,nan,nan,nan
904.902762,-2.24,37.59,-1.95,0.60,-0.04,0.79,-0.01,-0.01,0.99,17-05-2019 03:54:17,nan,nan,nan,nan
904.913410,-2.25,37.58,-1.95,0.60,-0.04,0.79,-0.01,-0.01,0.99,17-05-2019 03:54:17,nan,nan,nan,nan
904.922210,-2.25,37.58,-1.95,0.60,-0.04,0.79,-0.01,-0.01,0.99,17-05-2019 03:54:17,nan,nan,nan,nan
904.932911,-2.25,37.58,-1.96,0.60,-0.04,0.79,-0.01,-0.01,0.99,17-05-2019 03:54:17,nan,nan,nan,nan
904.942806,-2.25,37.58,-1.96,0.60,-0.04,0.79,-0.01,-0.01,0.99,17-05-2019 03:54:17,nan,nan,nan,nan
904.952487,-2.24,37.58,-1.96,0.60,-0.04,0.79,-0.01,-0.01,0.99,17-05-2019 03:54:17,nan,nan,nan,nan
904.962387,-2.24,37.58,-1.96,0.60,-0.04,0.79,-0.01,-0.01,0.99,17-05-2019 03:54:17,nan,nan,nan,nan
904.971927,-2.24,37.58,-1.96,0.60,-0.04,0.79,-0.01,-0.01,0.99,17-05-2019 03:54:17,nan,nan,nan,nan
904.981696,-2.24,37.58,-1.96,0.60,-0.04,0.79,-0.01,-0.00,0.99,17-05-2019 03:54:17,nan,nan,nan,nan
904.994212,-2.24,37.58,-1.97,0.60,-0.04,0.79,-0.01,-0.01,0.99,17-05-2019 03:54:17,nan,nan,nan,nan
905.003506,-2.24,37.57,-1.97,0.60,-0.04,0.79,-0.01,-0.01,0.99,17-05-2019 03:54:18,nan,nan,nan,nan
905.013512,-2.24,37.57,-1.97,0.60,-0.04,0.79,-0.01,-0.01,0.99,17-05-2019 03:54:18,nan,nan,nan,nan
905.023283,-2.24,37.57,-1.98,0.60,-0.04,0.79,-0.01,-0.01,0.99,17-05-2019 03:54:18,nan,nan,nan,nan
905.033365,-2.24,37.56,-1.98,0.60,-0.04,0.79,-0.01,-0.01,0.99,17-05-2019 03:54:18,nan,nan,nan,nan
905.043022,-2.24,37.56,-1.99,0.60,-0.05,0.79,-0.01,-0.01,0.99,17-05-2019 03:54:18,nan,nan,nan,nan
905.052449,-2.24,37.56,-1.99,0.60,-0.05,0.79,-0.01,-0.01,0.99,17-05-2019 03:54:18,nan,nan,nan,nan
905.063128,-2.24,37.56,-1.99,0.60,-0.05,0.79,-0.01,-0.01,0.99,17-05-2019 03:54:18,nan,nan,nan,nan
905.071900,-2.24,37.55,-1.99,0.60,-0.04,0.79,-0.01,-0.01,0.99,17-05-2019 03:54:18,nan,nan,nan,nan
905.082579,-2.24,37.55,-2.00,0.59,-0.04,0.79,-0.01,-0.01,0.99,17-05-2019 03:54:18,nan,nan,nan,nan
905.097037,-2.24,37.55,-2.00,0.60,-0.04,0.79,-0.01,-0.01,0.99,17-05-2019 03:54:18,nan,nan,nan,nan
905.104157,-2.24,37.55,-2.00,0.60,-0.04,0.79,-0.01,-0.01,0.99,17-05-2019 03:54:18,nan,nan,nan,nan
905.113053,-2.24,37.55,-2.00,0.60,-0.04,0.79,-0.01,-0.00,0.99,17-05-2019 03:54:18,nan,nan,nan,nan
905.121911,-2.24,37.55,-2.00,0.60,-0.04,0.79,-0.01,-0.00,0.99,17-05-2019 03:54:18,nan,nan,nan,nan
905.132554,-2.23,37.55,-2.01,0.60,-0.04,0.79,-0.01,-0.01,0.99,17-05-2019 03:54:18,nan,nan,nan,nan
905.143276,-2.23,37.55,-2.01,0.59,-0.04,0.79,-0.01,-0.01,0.99,17-05-2019 03:54:18,nan,nan,nan,nan
905.152164,-2.23,37.54,-2.01,0.59,-0.04,0.79,-0.01,-0.01,0.99,17-05-2019 03:54:18,nan,nan,nan,nan
905.163040,-2.23,37.54,-2.01,0.60,-0.04,0.79,-0.01,-0.01,0.99,17-05-2019 03:54:18,nan,nan,nan,nan
905.173830,-2.24,37.54,-2.02,0.60,-0.04,0.79,-0.01,-0.01,0.99,17-05-2019 03:54:18,nan,nan,nan,nan
905.182737,-2.24,37.54,-2.02,0.60,-0.04,0.79,-0.01,-0.01,0.99,17-05-2019 03:54:18,nan,nan,nan,nan
905.193400,-2.23,37.53,-2.03,0.60,-0.05,0.79,-0.01,-0.01,0.99,17-05-2019 03:54:18,nan,nan,nan,nan
905.204026,-2.23,37.53,-2.03,0.60,-0.05,0.79,-0.01,-0.01,0.99,17-05-2019 03:54:18,nan,nan,nan,nan
905.212941,-2.23,37.53,-2.03,0.60,-0.04,0.79,-0.01,-0.01,0.99,17-05-2019 03:54:18,nan,nan,nan,nan
905.223642,-2.23,37.53,-2.03,0.60,-0.04,0.79,-0.01,-0.01,0.99,17-05-2019 03:54:18,nan,nan,nan,nan
905.234320,-2.23,37.53,-2.03,0.60,-0.04,0.79,-0.01,-0.01,0.99,17-05-2019 03:54:18,nan,nan,nan,nan
905.243314,-2.23,37.52,-2.03,0.60,-0.04,0.79,-0.01,-0.01,0.99,17-05-2019 03:54:18,nan,nan,nan,nan
905.254278,-2.23,37.52,-2.03,0.60,-0.04,0.79,-0.01,-0.01,0.99,17-05-2019 03:54:18,nan,nan,nan,nan
905.263224,-2.23,37.52,-2.03,0.60,-0.04,0.79,-0.01,-0.00,0.99,17-05-2019 03:54:18,nan,nan,nan,nan
905.273899,-2.23,37.52,-2.03,0.60,-0.04,0.79,-0.01,-0.00,0.99,17-05-2019 03:54:18,nan,nan,nan,nan
905.284544,-2.23,37.52,-2.03,0.60,-0.04,0.79,-0.00,-0.00,0.99,17-05-2019 03:54:18,nan,nan,nan,nan
905.293873,-2.23,37.52,-2.03,0.60,-0.04,0.79,-0.00,-0.00,0.99,17-05-2019 03:54:18,nan,nan,nan,nan
905.304859,-2.23,37.52,-2.04,0.60,-0.04,0.79,-0.00,-0.00,0.99,17-05-2019 03:54:18,nan,nan,nan,nan
905.314051,-2.23,37.52,-2.04,0.60,-0.04,0.79,-0.00,-0.00,0.99,17-05-2019 03:54:18,nan,nan,nan,nan
905.324915,-2.23,37.52,-2.04,0.60,-0.04,0.79,-0.01,-0.01,0.99,17-05-2019 03:54:18,nan,nan,nan,nan
905.334025,-2.23,37.52,-2.05,0.60,-0.04,0.79,-0.00,-0.01,0.99,17-05-2019 03:54:18,nan,nan,nan,nan
905.344267,-2.23,37.52,-2.05,0.60,-0.04,0.78,-0.00,-0.01,0.99,17-05-2019 03:54:18,nan,nan,nan,nan
905.355322,-2.23,37.52,-2.05,0.60,-0.04,0.78,-0.00,-0.01,0.99,17-05-2019 03:54:18,nan,nan,nan,nan
905.364343,-2.23,37.52,-2.05,0.60,-0.04,0.78,-0.00,-0.01,0.99,17-05-2019 03:54:18,nan,nan,nan,nan
905.375542,-2.22,37.52,-2.05,0.60,-0.04,0.79,-0.00,-0.01,0.99,17-05-2019 03:54:18,nan,nan,nan,nan
905.384836,-2.22,37.52,-2.05,0.60,-0.04,0.79,-0.00,-0.01,0.99,17-05-2019 03:54:18,nan,nan,nan,nan
905.395720,-2.22,37.51,-2.05,0.60,-0.04,0.79,-0.00,-0.01,0.99,17-05-2019 03:54:18,nan,nan,nan,nan
905.405034,-2.22,37.51,-2.05,0.60,-0.04,0.79,-0.00,-0.00,0.99,17-05-2019 03:54:18,nan,nan,nan,nan
905.415871,-2.22,37.51,-2.05,0.60,-0.04,0.79,-0.00,-0.00,0.99,17-05-2019 03:54:18,nan,nan,nan,nan
905.425251,-2.22,37.51,-2.05,0.60,-0.04,0.79,-0.00,0.00,0.99,17-05-2019 03:54:18,nan,nan,nan,nan
905.436174,-2.22,37.51,-2.05,0.60,-0.04,0.79,-0.00,-0.00,0.99,17-05-2019 03:54:18,nan,nan,nan,nan
905.445376,-2.22,37.51,-2.05,0.60,-0.04,0.79,-0.01,-0.00,0.99,17-05-2019 03:54:18,nan,nan,nan,nan
905.456251,-2.22,37.51,-2.05,0.60,-0.04,0.79,-0.01,0.00,0.99,17-05-2019 03:54:18,nan,nan,nan,nan
905.465485,-2.22,37.51,-2.05,0.60,-0.04,0.79,-0.01,-0.00,0.99,17-05-2019 03:54:18,nan,nan,nan,nan
905.476528,-2.22,37.51,-2.06,0.60,-0.04,0.79,-0.01,-0.00,0.99,17-05-2019 03:54:18,nan,nan,nan,nan
905.485632,-2.22,37.50,-2.06,0.60,-0.04,0.79,-0.01,-0.00,0.99,17-05-2019 03:54:18,nan,nan,nan,nan
905.496839,-2.22,37.50,-2.06,0.59,-0.04,0.79,-0.01,-0.00,0.99,17-05-2019 03:54:18,nan,nan,nan,nan
905.506115,-2.22,37.50,-2.06,0.59,-0.04,0.79,-0.01,-0.00,0.99,17-05-2019 03:54:18,nan,nan,nan,nan
905.515275,-2.22,37.49,-2.07,0.59,-0.04,0.79,-0.01,-0.01,0.99,17-05-2019 03:54:18,nan,nan,nan,nan
905.526130,-2.23,37.49,-2.07,0.59,-0.04,0.79,-0.01,-0.01,0.99,17-05-2019 03:54:18,nan,nan,nan,nan
905.537246,-2.23,37.49,-2.07,0.59,-0.04,0.79,-0.01,-0.01,0.99,17-05-2019 03:54:18,nan,nan,nan,nan
905.546342,-2.22,37.49,-2.08,0.59,-0.04,0.79,-0.01,-0.00,0.99,17-05-2019 03:54:18,nan,nan,nan,nan
905.557370,-2.22,37.48,-2.08,0.59,-0.04,0.79,-0.01,-0.00,0.99,17-05-2019 03:54:18,nan,nan,nan,nan
905.566396,-2.22,37.48,-2.08,0.59,-0.04,0.79,-0.01,-0.00,0.99,17-05-2019 03:54:18,nan,nan,nan,nan
905.576308,-2.22,37.48,-2.08,0.59,-0.04,0.79,-0.01,-0.00,0.99,17-05-2019 03:54:18,nan,nan,nan,nan
905.587478,-2.22,37.48,-2.08,0.60,-0.04,0.79,-0.00,-0.00,0.99,17-05-2019 03:54:18,nan,nan,nan,nan
905.596611,-2.22,37.48,-2.08,0.60,-0.04,0.79,-0.00,-0.00,0.99,17-05-2019 03:54:18,nan,nan,nan,nan
905.607533,-2.22,37.48,-2.08,0.60,-0.04,0.79,-0.00,-0.00,0.99,17-05-2019 03:54:18,nan,nan,nan,nan
905.616727,-2.22,37.48,-2.08,0.60,-0.04,0.79,-0.00,-0.00,0.99,17-05-2019 03:54:18,nan,nan,nan,nan
905.627556,-2.22,37.48,-2.08,0.60,-0.04,0.79,-0.00,-0.00,0.99,17-05-2019 03:54:18,nan,nan,nan,nan
905.636703,-2.22,37.48,-2.09,0.60,-0.04,0.79,-0.00,-0.00,0.99,17-05-2019 03:54:18,nan,nan,nan,nan
905.647625,-2.22,37.48,-2.09,0.60,-0.04,0.79,-0.00,-0.01,0.99,17-05-2019 03:54:18,nan,nan,nan,nan
905.656829,-2.22,37.48,-2.09,0.60,-0.04,0.79,-0.00,-0.00,0.99,17-05-2019 03:54:18,nan,nan,nan,nan
905.667785,-2.21,37.48,-2.10,0.60,-0.04,0.79,-0.01,-0.01,0.99,17-05-2019 03:54:18,nan,nan,nan,nan
905.676917,-2.21,37.48,-2.10,0.60,-0.04,0.79,-0.01,-0.01,0.99,17-05-2019 03:54:18,nan,nan,nan,nan
905.687894,-2.21,37.48,-2.10,0.60,-0.04,0.79,-0.01,-0.01,0.99,17-05-2019 03:54:18,nan,nan,nan,nan
905.697019,-2.21,37.47,-2.10,0.60,-0.04,0.79,-0.01,-0.00,0.99,17-05-2019 03:54:18,nan,nan,nan,nan
905.707951,-2.21,37.47,-2.10,0.60,-0.04,0.79,-0.01,-0.00,0.99,17-05-2019 03:54:18,nan,nan,nan,nan
905.717073,-2.21,37.47,-2.10,0.60,-0.04,0.79,-0.01,-0.00,0.99,17-05-2019 03:54:18,nan,nan,nan,nan
905.728035,-2.21,37.47,-2.10,0.60,-0.04,0.79,-0.01,-0.00,0.99,17-05-2019 03:54:18,nan,nan,nan,nan
905.738978,-2.21,37.47,-2.10,0.60,-0.04,0.79,-0.01,-0.00,0.99,17-05-2019 03:54:18,nan,nan,nan,nan
905.748065,-2.21,37.47,-2.10,0.60,-0.04,0.79,-0.00,-0.00,0.99,17-05-2019 03:54:18,nan,nan,nan,nan
905.758992,-2.21,37.47,-2.10,0.60,-0.04,0.79,-0.00,-0.00,0.99,17-05-2019 03:54:18,nan,nan,nan,nan
905.768035,-2.21,37.47,-2.11,0.60,-0.04,0.79,-0.00,-0.00,0.99,17-05-2019 03:54:18,nan,nan,nan,nan
905.778983,-2.21,37.47,-2.11,0.60,-0.04,0.79,-0.00,-0.00,0.99,17-05-2019 03:54:18,nan,nan,nan,nan
905.788110,-2.21,37.47,-2.11,0.60,-0.04,0.79,-0.00,-0.00,0.99,17-05-2019 03:54:18,nan,nan,nan,nan
905.798903,-2.21,37.46,-2.11,0.60,-0.04,0.79,-0.00,-0.00,0.99,17-05-2019 03:54:18,nan,nan,nan,nan
905.808018,-2.20,37.47,-2.12,0.60,-0.04,0.79,-0.00,-0.00,0.99,17-05-2019 03:54:18,nan,nan,nan,nan
905.818950,-2.21,37.46,-2.12,0.60,-0.04,0.79,-0.00,-0.00,0.99,17-05-2019 03:54:18,nan,nan,nan,nan
905.828054,-2.21,37.46,-2.12,0.60,-0.04,0.79,-0.00,-0.01,0.99,17-05-2019 03:54:18,nan,nan,nan,nan
905.838884,-2.21,37.47,-2.12,0.60,-0.04,0.79,-0.00,-0.01,0.99,17-05-2019 03:54:18,nan,nan,nan,nan
905.848470,-2.21,37.47,-2.12,0.60,-0.04,0.79,0.00,-0.01,0.99,17-05-2019 03:54:18,nan,nan,nan,nan
905.859357,-2.21,37.47,-2.12,0.60,-0.04,0.79,-0.00,-0.00,0.99,17-05-2019 03:54:18,nan,nan,nan,nan
905.868586,-2.21,37.46,-2.12,0.60,-0.04,0.79,-0.00,-0.00,0.99,17-05-2019 03:54:18,nan,nan,nan,nan
905.879602,-2.20,37.46,-2.12,0.60,-0.04,0.79,-0.00,-0.00,0.99,17-05-2019 03:54:18,nan,nan,nan,nan
905.888750,-2.20,37.46,-2.12,0.60,-0.04,0.79,-0.00,-0.00,0.99,17-05-2019 03:54:18,nan,nan,nan,nan
905.899542,-2.20,37.46,-2.12,0.60,-0.04,0.79,-0.00,0.00,0.99,17-05-2019 03:54:18,nan,nan,nan,nan
905.910547,-2.20,37.46,-2.13,0.60,-0.04,0.79,-0.00,0.00,0.99,17-05-2019 03:54:18,nan,nan,nan,nan
905.918892,-2.20,37.46,-2.13,0.60,-0.04,0.79,-0.01,-0.00,0.99,17-05-2019 03:54:18,nan,nan,nan,nan
905.929773,-2.21,37.45,-2.13,0.60,-0.04,0.79,-0.01,-0.00,0.99,17-05-2019 03:54:18,nan,nan,nan,nan
905.940766,-2.21,37.45,-2.13,0.60,-0.04,0.79,-0.01,-0.00,0.99,17-05-2019 03:54:18,nan,nan,nan,nan
905.950414,-2.21,37.45,-2.13,0.60,-0.04,0.79,-0.01,-0.00,0.99,17-05-2019 03:54:18,nan,nan,nan,nan
905.960984,-2.20,37.45,-2.14,0.60,-0.04,0.79,-0.00,-0.00,0.99,17-05-2019 03:54:18,nan,nan,nan,nan
905.971463,-2.20,37.45,-2.14,0.60,-0.04,0.79,-0.00,-0.00,0.99,17-05-2019 03:54:18,nan,nan,nan,nan
905.979801,-2.20,37.45,-2.14,0.60,-0.04,0.79,-0.00,-0.00,0.99,17-05-2019 03:54:18,nan,nan,nan,nan
905.990353,-2.20,37.45,-2.14,0.60,-0.04,0.78,-0.00,-0.00,0.99,17-05-2019 03:54:18,nan,nan,nan,nan
906.000696,-2.20,37.45,-2.14,0.60,-0.04,0.78,-0.00,-0.00,0.99,17-05-2019 03:54:18,nan,nan,nan,nan
906.013275,-2.20,37.45,-2.14,0.60,-0.04,0.78,0.00,-0.00,0.99,17-05-2019 03:54:19,nan,nan,nan,nan
906.021706,-2.20,37.45,-2.14,0.60,-0.04,0.78,0.00,-0.00,0.99,17-05-2019 03:54:19,nan,nan,nan,nan
906.032221,-2.20,37.45,-2.14,0.60,-0.04,0.79,0.00,-0.00,0.99,17-05-2019 03:54:19,nan,nan,nan,nan
906.040598,-2.20,37.45,-2.14,0.60,-0.04,0.79,-0.00,-0.00,0.99,17-05-2019 03:54:19,nan,nan,nan,nan
906.051142,-2.20,37.45,-2.14,0.60,-0.04,0.79,-0.00,0.00,0.99,17-05-2019 03:54:19,nan,nan,nan,nan
906.061456,-2.20,37.45,-2.14,0.60,-0.04,0.79,-0.00,0.00,0.99,17-05-2019 03:54:19,nan,nan,nan,nan
906.070626,-2.20,37.45,-2.14,0.60,-0.04,0.79,-0.01,-0.00,0.99,17-05-2019 03:54:19,nan,nan,nan,nan
906.081544,-2.20,37.45,-2.15,0.60,-0.04,0.79,-0.01,-0.00,0.99,17-05-2019 03:54:19,nan,nan,nan,nan
906.090660,-2.20,37.44,-2.15,0.60,-0.04,0.79,-0.00,0.00,0.99,17-05-2019 03:54:19,nan,nan,nan,nan
906.101628,-2.20,37.44,-2.15,0.60,-0.04,0.79,-0.00,0.00,0.99,17-05-2019 03:54:19,nan,nan,nan,nan
906.110813,-2.20,37.44,-2.15,0.60,-0.04,0.79,-0.00,-0.00,0.99,17-05-2019 03:54:19,nan,nan,nan,nan
906.121778,-2.20,37.44,-2.15,0.60,-0.04,0.79,-0.00,-0.00,0.99,17-05-2019 03:54:19,nan,nan,nan,nan
906.130836,-2.20,37.44,-2.15,0.60,-0.04,0.79,-0.00,-0.00,0.99,17-05-2019 03:54:19,nan,nan,nan,nan
906.141689,-2.20,37.44,-2.16,0.60,-0.04,0.79,-0.00,-0.00,0.99,17-05-2019 03:54:19,nan,nan,nan,nan
906.150761,-2.20,37.44,-2.16,0.60,-0.04,0.79,-0.00,-0.00,0.99,17-05-2019 03:54:19,nan,nan,nan,nan
906.161609,-2.20,37.44,-2.16,0.60,-0.04,0.79,-0.00,-0.00,0.99,17-05-2019 03:54:19,nan,nan,nan,nan
906.170629,-2.20,37.44,-2.16,0.60,-0.04,0.79,-0.00,-0.01,0.99,17-05-2019 03:54:19,nan,nan,nan,nan
906.181495,-2.20,37.44,-2.17,0.60,-0.04,0.79,-0.00,-0.01,0.99,17-05-2019 03:54:19,nan,nan,nan,nan
906.190598,-2.20,37.44,-2.17,0.60,-0.04,0.79,-0.00,-0.01,0.99,17-05-2019 03:54:19,nan,nan,nan,nan
906.201348,-2.20,37.43,-2.17,0.60,-0.04,0.79,-0.00,-0.00,0.99,17-05-2019 03:54:19,nan,nan,nan,nan
906.210380,-2.19,37.43,-2.16,0.60,-0.04,0.79,-0.00,-0.00,0.99,17-05-2019 03:54:19,nan,nan,nan,nan
906.221162,-2.19,37.43,-2.16,0.60,-0.04,0.79,-0.00,-0.00,0.99,17-05-2019 03:54:19,nan,nan,nan,nan
906.231953,-2.19,37.43,-2.16,0.60,-0.04,0.79,-0.01,-0.00,0.99,17-05-2019 03:54:19,nan,nan,nan,nan
906.241009,-2.19,37.43,-2.16,0.60,-0.04,0.79,-0.01,-0.00,0.99,17-05-2019 03:54:19,nan,nan,nan,nan
906.251783,-2.19,37.43,-2.16,0.60,-0.04,0.79,-0.01,0.00,0.99,17-05-2019 03:54:19,nan,nan,nan,nan
906.260927,-2.19,37.42,-2.16,0.60,-0.04,0.79,-0.01,0.00,0.99,17-05-2019 03:54:19,nan,nan,nan,nan
906.271765,-2.19,37.42,-2.16,0.60,-0.04,0.79,-0.01,-0.00,0.99,17-05-2019 03:54:19,nan,nan,nan,nan
906.280797,-2.19,37.42,-2.17,0.60,-0.04,0.79,-0.01,-0.00,0.99,17-05-2019 03:54:19,nan,nan,nan,nan
906.291613,-2.19,37.42,-2.17,0.60,-0.04,0.79,-0.01,-0.00,0.99,17-05-2019 03:54:19,nan,nan,nan,nan
906.300584,-2.20,37.42,-2.17,0.60,-0.04,0.79,-0.01,-0.00,0.99,17-05-2019 03:54:19,nan,nan,nan,nan
906.311485,-2.20,37.42,-2.17,0.60,-0.04,0.79,-0.01,-0.00,0.99,17-05-2019 03:54:19,nan,nan,nan,nan
906.320544,-2.20,37.41,-2.18,0.60,-0.04,0.79,-0.00,-0.01,0.99,17-05-2019 03:54:19,nan,nan,nan,nan
906.331420,-2.20,37.41,-2.18,0.60,-0.04,0.79,-0.00,-0.00,0.99,17-05-2019 03:54:19,nan,nan,nan,nan
906.340532,-2.19,37.41,-2.18,0.60,-0.04,0.79,-0.00,-0.00,0.99,17-05-2019 03:54:19,nan,nan,nan,nan
906.351508,-2.19,37.41,-2.18,0.60,-0.04,0.79,-0.01,-0.00,0.99,17-05-2019 03:54:19,nan,nan,nan,nan
906.360552,-2.19,37.41,-2.18,0.60,-0.04,0.79,-0.01,-0.00,0.99,17-05-2019 03:54:19,nan,nan,nan,nan
906.371432,-2.19,37.41,-2.18,0.60,-0.04,0.79,-0.01,0.00,0.99,17-05-2019 03:54:19,nan,nan,nan,nan
906.380491,-2.19,37.41,-2.17,0.60,-0.04,0.79,-0.01,0.00,0.99,17-05-2019 03:54:19,nan,nan,nan,nan
906.391338,-2.19,37.41,-2.17,0.60,-0.04,0.79,-0.01,0.00,0.99,17-05-2019 03:54:19,nan,nan,nan,nan
906.400286,-2.19,37.40,-2.17,0.60,-0.03,0.79,-0.01,0.00,0.99,17-05-2019 03:54:19,nan,nan,nan,nan
906.411189,-2.19,37.40,-2.17,0.60,-0.03,0.79,-0.01,0.00,0.99,17-05-2019 03:54:19,nan,nan,nan,nan
906.420211,-2.19,37.40,-2.17,0.60,-0.04,0.79,-0.01,0.00,0.99,17-05-2019 03:54:19,nan,nan,nan,nan
906.431129,-2.19,37.40,-2.17,0.60,-0.04,0.79,-0.01,0.00,0.99,17-05-2019 03:54:19,nan,nan,nan,nan
906.441958,-2.19,37.40,-2.17,0.60,-0.04,0.79,-0.00,0.00,0.99,17-05-2019 03:54:19,nan,nan,nan,nan
906.450980,-2.19,37.40,-2.18,0.60,-0.04,0.79,-0.00,-0.00,0.99,17-05-2019 03:54:19,nan,nan,nan,nan
906.461835,-2.19,37.40,-2.18,0.60,-0.04,0.79,-0.00,-0.00,0.99,17-05-2019 03:54:19,nan,nan,nan,nan
906.470952,-2.19,37.40,-2.18,0.60,-0.04,0.79,0.00,-0.00,0.99,17-05-2019 03:54:19,nan,nan,nan,nan
906.481825,-2.19,37.40,-2.18,0.60,-0.04,0.79,-0.00,-0.00,0.99,17-05-2019 03:54:19,nan,nan,nan,nan
906.491291,-2.19,37.40,-2.18,0.60,-0.04,0.79,-0.00,-0.00,0.99,17-05-2019 03:54:19,nan,nan,nan,nan
906.500249,-2.19,37.40,-2.18,0.60,-0.04,0.79,-0.00,0.00,0.99,17-05-2019 03:54:19,nan,nan,nan,nan
906.511152,-2.18,37.39,-2.17,0.60,-0.04,0.79,-0.00,0.00,0.99,17-05-2019 03:54:19,nan,nan,nan,nan
906.520117,-2.18,37.39,-2.17,0.60,-0.04,0.79,-0.00,0.00,0.99,17-05-2019 03:54:19,nan,nan,nan,nan
906.530977,-2.18,37.39,-2.17,0.60,-0.04,0.79,-0.00,0.00,0.99,17-05-2019 03:54:19,nan,nan,nan,nan
906.541831,-2.18,37.39,-2.17,0.60,-0.03,0.79,-0.01,0.00,0.99,17-05-2019 03:54:19,nan,nan,nan,nan
906.550840,-2.18,37.39,-2.17,0.60,-0.03,0.79,-0.01,0.00,0.99,17-05-2019 03:54:19,nan,nan,nan,nan
906.561686,-2.18,37.39,-2.17,0.60,-0.04,0.79,-0.01,0.00,0.99,17-05-2019 03:54:19,nan,nan,nan,nan
906.570865,-2.19,37.38,-2.18,0.60,-0.04,0.79,-0.00,0.00,0.99,17-05-2019 03:54:19,nan,nan,nan,nan
906.581715,-2.19,37.38,-2.18,0.60,-0.04,0.79,-0.00,-0.00,0.99,17-05-2019 03:54:19,nan,nan,nan,nan
906.591211,-2.18,37.38,-2.18,0.60,-0.04,0.79,-0.00,-0.00,0.99,17-05-2019 03:54:19,nan,nan,nan,nan
906.600223,-2.18,37.38,-2.18,0.60,-0.04,0.79,-0.00,-0.00,0.99,17-05-2019 03:54:19,nan,nan,nan,nan
906.611082,-2.18,37.38,-2.18,0.60,-0.04,0.79,-0.00,-0.00,0.99,17-05-2019 03:54:19,nan,nan,nan,nan
906.620128,-2.18,37.38,-2.18,0.60,-0.04,0.79,0.00,-0.00,0.99,17-05-2019 03:54:19,nan,nan,nan,nan
906.631024,-2.18,37.38,-2.18,0.60,-0.04,0.78,0.00,-0.00,0.99,17-05-2019 03:54:19,nan,nan,nan,nan
906.640083,-2.18,37.38,-2.18,0.60,-0.04,0.79,0.00,0.00,0.99,17-05-2019 03:54:19,nan,nan,nan,nan
906.650910,-2.18,37.38,-2.18,0.60,-0.03,0.79,0.00,0.00,0.99,17-05-2019 03:54:19,nan,nan,nan,nan
906.661717,-2.18,37.38,-2.18,0.60,-0.03,0.79,-0.00,0.00,0.99,17-05-2019 03:54:19,nan,nan,nan,nan
906.670789,-2.18,37.38,-2.18,0.60,-0.03,0.79,-0.00,0.00,0.99,17-05-2019 03:54:19,nan,nan,nan,nan
906.681668,-2.18,37.38,-2.18,0.60,-0.03,0.79,-0.00,0.00,0.99,17-05-2019 03:54:19,nan,nan,nan,nan
